id,name,lat,lng,radius,rating,flooring_experience
1,Lazz,40.076762,113.300129,108.83,0.96,"['carpet','tiles']"
9,Latz,50.8105808,27.3166945,128.72,3.48,"['carpet','cement','tiles','wood']"
6,Browsetype,41.3281534,-8.1222717,134.09,7.85,"['carpet','cement','tiles','wood']"
805,Blogtags,49.6087627,18.4861804,100,9.99,"['carpet','tiles','wood']"
546,Katz,44.8529367,0.4881056,138.36,9.16,"['carpet','tiles','wood']"
752,Yozio,-8.3884,124.6616,107.04,7.37,"['carpet','tiles','wood']"
853,Devbug,-8.4456045,114.1142079,138.15,3.96,"['carpet','tiles','wood']"
854,Topiczoom,41.1009418,23.678736,139.21,9.16,"['carpet','tiles','wood']"
855,Flipbug,-26.94087,29.24905,135.49,4.29,"['carpet','tiles','wood']"
856,Gigashots,30.67705,120.618585,123.96,9.52,"['carpet','tiles','wood']"
857,Meejo,8.69778,-13.23917,123.4,6.67,"['carpet','tiles','wood']"
858,Skidoo,13.7696054,121.030464,107.55,7.54,"['carpet','tiles','wood']"
859,Vidoo,35.8521978,114.3530642,141.06,3.57,"['carpet','tiles','wood']"
860,Yodo,55.6084924,73.4882009,127.66,6.05,"['carpet','tiles','wood']"
861,Voonder,11.4998068,11.9336539,107.85,7.93,"['carpet','tiles','wood']"
862,Flashpoint,40.4414068,-8.4396618,139.45,9.95,"['carpet','tiles','wood']"
863,Meejo,0.9452075,-77.6534904,122.81,0.93,"['carpet','tiles','wood']"
864,Devpoint,-3.565921,114.7855271,109.93,8.29,"['carpet','tiles','wood']"
865,Riffpath,49.7979942,17.2369478,138.6,1.44,"['carpet','tiles','wood']"
866,Devpoint,45.4067515,20.6262629,113.55,8.84,"['carpet','tiles','wood']"
867,Skiptube,22.279062,114.174463,106.76,6.2,"['carpet','tiles','wood']"
868,Demimbu,-9.4964,119.2262667,138.31,6.46,"['carpet','tiles','wood']"
869,Meeveo,39.50725,112.083556,107.28,3.27,"['carpet','tiles','wood']"
870,Photolist,49.3560885,16.0130577,142.31,7.46,"['carpet','tiles','wood']"
871,Yabox,-9.3863122,-37.9926586,118.44,9.15,"['carpet','tiles','wood']"
872,Ntag,24.44218,114.938684,132.73,3.82,"['carpet','tiles','wood']"
564,Zoombox,51.0836752,28.4004787,134.97,9.98,"['carpet','tiles','wood']"
565,Devshare,31.628965,130.3458631,132.03,0.18,"['carpet','tiles','wood']"
566,Topicstorm,37.7162538,-97.2983363,119.88,4.25,"['carpet','tiles','wood']"
567,Vitz,34.797281,114.307582,126.11,3.77,"['carpet','tiles','wood']"
568,Dabjam,50.5091386,16.5739973,149.39,8.61,"['carpet','tiles','wood']"
569,Thoughtstorm,47.7526314,-2.285174,149.09,4.13,"['carpet','tiles','wood']"
570,Yoveo,32.888994,120.555917,134.12,8.76,"['carpet','tiles','wood']"
571,Livefish,3.6489578,18.6353764,135.01,8.23,"['carpet','tiles','wood']"
572,Wikido,40.4930573,23.6502521,134.3,2.24,"['carpet','tiles','wood']"
573,Divape,60.7412843,56.7240294,139.22,4.94,"['carpet','tiles','wood']"
574,Tagtune,14.5699334,121.0204582,140.49,6.3,"['carpet','tiles','wood']"
575,Wikibox,31.266133,121.611248,119.11,4.9,"['carpet','tiles','wood']"
576,Gigashots,29.8667325,121.5557719,130.03,4.13,"['carpet','tiles','wood']"
577,Eimbee,5.9840985,116.0761121,119.46,4.59,"['carpet','tiles','wood']"
578,Gigazoom,49.2101697,15.9883033,122.94,4.68,"['carpet','tiles','wood']"
579,Livefish,36.504083,138.1146139,104.14,6.09,"['carpet','tiles','wood']"
580,Quimm,25.4039407,60.3732653,136.54,9.05,"['carpet','tiles','wood']"
581,Dabjam,-38.956431,-68.23127,116.97,0.82,"['carpet','tiles','wood']"
582,Blogspan,-6.1873861,106.9168787,103.12,7.24,"['carpet','tiles','wood']"
583,Shufflester,-23.1087262,-50.3675124,125.09,4.79,"['carpet','tiles','wood']"
584,Edgepulse,-22.8262707,-43.0152252,101.68,6.34,"['carpet','tiles','wood']"
585,Yodel,53.149977,140.6634789,106.81,0.39,"['carpet','tiles','wood']"
586,Innotype,49.1478969,14.1751311,118.83,3.01,"['carpet','tiles','wood']"
587,Jetwire,39.8319349,44.6635181,133.15,3.03,"['carpet','tiles','wood']"
588,Skyvu,53.171935,-6.139018,108.44,0.52,"['carpet','tiles','wood']"
589,Aimbo,15.0365207,-86.8195237,130.51,3.99,"['carpet','tiles','wood']"
590,Brainbox,48.732568,2.2889821,114.81,5.81,"['carpet','tiles','wood']"
591,Skibox,19.307033,-99.1675842,116.53,4.76,"['carpet','tiles','wood']"
592,Linklinks,54.42789,48.26675,142.23,2.29,"['carpet','tiles','wood']"
593,Browsedrive,15.787298,120.604649,102.72,0.66,"['carpet','tiles','wood']"
594,Cogidoo,57.227222,29.161111,112.29,9.01,"['carpet','tiles','wood']"
595,Linktype,48.0545221,23.623662,115.17,1.73,"['carpet','tiles','wood']"
596,Quimm,22.983121,112.9973583,130.23,9.58,"['carpet','tiles','wood']"
597,Gabcube,50.8816379,20.4659289,148.21,3.68,"['carpet','tiles','wood']"
598,Gigazoom,6.8192374,3.1930302,103.85,1.53,"['carpet','tiles','wood']"
599,Kwideo,30.4190616,-97.8395151,129.69,7.56,"['carpet','tiles','wood']"
600,Feedfish,1.6832081,101.4537902,140.29,2.55,"['carpet','tiles','wood']"
601,Vidoo,57.8352611,61.6978774,114.74,0.05,"['carpet','tiles','wood']"
602,Jayo,23.105394,113.874335,127.16,8.5,"['carpet','tiles','wood']"
603,Feedmix,39.5022546,-8.6542956,140.22,6.58,"['carpet','tiles','wood']"
604,Kwideo,33.45,-112.08,119.11,2.8,"['carpet','tiles','wood']"
605,JumpXS,59.3551153,17.9700257,145.39,7.63,"['carpet','tiles','wood']"
606,Yoveo,40.3972809,-8.2549322,131.64,1.9,"['carpet','tiles','wood']"
607,Thoughtstorm,24.265926,116.081656,103.41,7.26,"['carpet','tiles','wood']"
608,Dabshots,41.5051316,-8.3877778,109.05,5.97,"['carpet','tiles','wood']"
609,Eayo,57.8282585,28.2416397,132.37,7.66,"['carpet','tiles','wood']"
610,Linkbuzz,52.8235876,117.2844144,100.19,4.43,"['carpet','tiles','wood']"
611,Oba,37.020948,122.093267,118.23,2.05,"['carpet','tiles','wood']"
612,Vinte,40.7392836,-73.9887809,144.06,9.12,"['carpet','tiles','wood']"
613,Jaxworks,37.1356467,-8.5174744,107.82,8.34,"['carpet','tiles','wood']"
614,Skinder,46.4482967,39.6777217,106.17,9.54,"['carpet','tiles','wood']"
615,Buzzdog,13.9755122,-89.217002,137.71,1.6,"['carpet','tiles','wood']"
616,Livetube,13.7721417,-88.0766404,117.46,2.46,"['carpet','tiles','wood']"
877,Ooba,24.820587,103.323844,133.61,0.59,"['carpet','tiles','wood']"
878,Vinte,-21.8324773,-46.8925845,149.34,8.06,"['carpet','tiles','wood']"
879,Centizu,37.0237497,120.5622121,133.15,9.98,"['carpet','tiles','wood']"
880,Pixoboo,8.71278,126.20806,149.11,9.24,"['carpet','tiles','wood']"
881,Riffpath,-6.2960156,106.8783167,136.18,9.71,"['carpet','tiles','wood']"
882,Bluejam,55.9496102,38.0865214,127.66,5.48,"['carpet','tiles','wood']"
883,Meevee,39.296173,113.690698,127.98,5.25,"['carpet','tiles','wood']"
884,Avamm,35.4957441,139.4480166,133,4.41,"['carpet','tiles','wood']"
885,Tagopia,-30.8263741,27.9776173,110.62,2.56,"['carpet','tiles','wood']"
886,Voolith,43.7441795,2.511999,146.41,1.44,"['carpet','tiles','wood']"
887,Fivechat,32.318255,109.715304,143.87,4.13,"['carpet','tiles','wood']"
888,Tambee,15.85,44.775,138.71,0.82,"['carpet','tiles','wood']"
889,Riffpedia,38.3833041,69.2698737,131.04,5.9,"['carpet','tiles','wood']"
890,Shufflester,19.2874648,-99.6494479,106.72,0.51,"['carpet','tiles','wood']"
891,Brainverse,43.7441795,2.511999,140.38,4.63,"['carpet','tiles','wood']"
892,Skippad,50.3590929,19.7574249,131.61,9.86,"['carpet','tiles','wood']"
893,Photobug,10.0342937,126.0415372,139.26,2.42,"['carpet','tiles','wood']"
894,Eamia,40.142128,94.661966,146.49,2.69,"['carpet','tiles','wood']"
895,Skyvu,29.8867778,-95.549054,106.74,5.74,"['carpet','tiles','wood']"
896,Fivechat,-28.7477963,-49.4745059,119.81,4.05,"['carpet','tiles','wood']"
897,Browsetype,20.72404,106.5535966,106.04,6.32,"['carpet','tiles','wood']"
898,Reallinks,48.0931021,25.9224603,131.05,6.04,"['carpet','tiles','wood']"
899,Skiptube,32.8501501,-6.5775187,147.22,3.58,"['carpet','tiles','wood']"
900,Buzzster,22.8387258,112.3810562,133.28,2.98,"['carpet','tiles','wood']"
901,Gigaclub,26.131056,119.569323,145.66,2.14,"['carpet','tiles','wood']"
902,Thoughtworks,59.3687545,17.9778073,147.3,7.41,"['carpet','tiles','wood']"
903,Zazio,40.7843506,22.0874496,145.26,6.68,"['carpet','tiles','wood']"
904,Realblab,-16.2803207,27.4732571,141.03,7.53,"['carpet','tiles','wood']"
905,Leexo,28.564921,93.419886,120.01,7.62,"['carpet','tiles','wood']"
906,Brainsphere,49.9846292,20.293343,111.32,6.49,"['carpet','tiles','wood']"
907,Trudoo,40.02575,124.2869167,149.6,4.05,"['carpet','tiles','wood']"
908,Oyonder,10.1579312,-67.9972104,141.34,7.14,"['carpet','tiles','wood']"
909,Browsebug,34.158997,108.906994,108.99,9.36,"['carpet','tiles','wood']"
910,Twitterbridge,-22.548794,-45.7750681,124.46,3.16,"['carpet','tiles','wood']"
911,Twitterbridge,41.9391449,12.532671,124.15,6.27,"['carpet','tiles','wood']"
912,Mudo,15.0186358,-12.5441446,149.9,2.26,"['carpet','tiles','wood']"
913,Rhynyx,51.0149751,2.343224,141.29,8.85,"['carpet','tiles','wood']"
914,Quimba,42.0595836,123.4808607,117.71,7.74,"['carpet','tiles','wood']"
915,Jayo,44.8278003,14.7318165,138.68,7.39,"['carpet','tiles','wood']"
916,Voonte,6.4315805,2.8876436,132.39,6.58,"['carpet','tiles','wood']"
917,Skynoodle,8.2459842,-75.6906241,145.53,1.83,"['carpet','tiles','wood']"
918,Fiveclub,36.9549975,65.1254488,133.62,7.72,"['carpet','tiles','wood']"
919,Gabvine,30.6074358,114.3110482,137.68,9.19,"['carpet','tiles','wood']"
920,Fanoodle,17.1056791,120.4557309,119.25,7.48,"['carpet','tiles','wood']"
921,Mynte,36.933812,116.638327,148.16,8.03,"['carpet','tiles','wood']"
922,Demivee,51.0377956,31.8880994,135.46,6.73,"['carpet','tiles','wood']"
923,Devpulse,60.0018505,30.2871797,124.98,0.96,"['carpet','tiles','wood']"
924,Livepath,39.4779651,-8.0757391,122.57,7.77,"['carpet','tiles','wood']"
925,Trudeo,41.4493594,44.5488663,113.39,5.32,"['carpet','tiles','wood']"
926,Livetube,66.14511,-65.71252,106.22,5.06,"['carpet','tiles','wood']"
927,Thoughtworks,37.3215804,65.7609502,113.47,8.32,"['carpet','tiles','wood']"
928,Wikizz,-7.4509461,-78.2696832,126.95,8.16,"['carpet','tiles','wood']"
929,Roomm,-5.5775197,12.1927103,125.66,1.86,"['carpet','tiles','wood']"
930,Quatz,30.352134,114.720925,101.57,4.53,"['carpet','tiles','wood']"
931,Quinu,39.5791451,47.5422138,125.16,1.58,"['carpet','tiles','wood']"
932,Vidoo,42.1087161,21.4177608,131.97,1.04,"['carpet','tiles','wood']"
933,Photofeed,48.6768262,14.5775257,101.75,3.5,"['carpet','tiles','wood']"
934,Fliptune,51.1081572,15.583895,130.83,1.82,"['carpet','tiles','wood']"
935,Innotype,11.1946369,122.5270677,111.77,1.82,"['carpet','tiles','wood']"
936,Browseblab,24.2521156,120.7223572,105.81,8.95,"['carpet','tiles','wood']"
937,Twimm,-37.9361202,-57.5552203,134.32,8.83,"['carpet','tiles','wood']"
938,Zooveo,41.7977426,-8.4531054,106.99,4.31,"['carpet','tiles','wood']"
39,Jabberstorm,12.6107413,122.2756648,149.23,7.9,"['carpet','tiles','wood']"
40,Bubblemix,33.2667748,131.5110953,130.98,4.27,"['carpet','tiles','wood']"
41,Fivechat,31.77078,35.26916,119.58,8.13,"['carpet','tiles','wood']"
42,Shuffletag,15.2904851,-86.9135745,141.82,1.91,"['carpet','tiles','wood']"
43,Dabfeed,-24.068741,-46.6512239,123.56,4.65,"['carpet','tiles','wood']"
44,Kanoodle,-8.5697306,123.3991028,108.41,9.48,"['carpet','tiles','wood']"
45,Gabtune,19.1753648,-96.1427574,144.32,3.04,"['carpet','tiles','wood']"
46,Topicshots,14.1507357,120.878102,140.51,9.24,"['carpet','tiles','wood']"
47,Edgewire,-7.5557614,111.4469654,108.44,1.66,"['carpet','tiles','wood']"
48,Teklist,16.0684136,119.9874642,130,6.51,"['carpet','tiles','wood']"
49,Mydo,-0.004491,15.6119301,107.82,8.23,"['carpet','tiles','wood']"
50,Blogtag,15.7290855,120.6271711,125.61,1.48,"['carpet','tiles','wood']"
51,Cogilith,33.1401715,119.7889248,121.75,0.55,"['carpet','tiles','wood']"
52,Vitz,37.612712,113.707184,101.5,6.75,"['carpet','tiles','wood']"
53,Kayveo,40.1207224,70.6157308,137.7,9.26,"['carpet','tiles','wood']"
54,Jatri,44.109264,87.626156,102.72,5.58,"['carpet','tiles','wood']"
55,Youbridge,31.026665,119.910952,134.07,9.18,"['carpet','tiles','wood']"
56,Meedoo,-8.0299,113.8526,106.92,3.3,"['carpet','tiles','wood']"
57,Rooxo,41.4833449,-8.2551219,128.19,8.93,"['carpet','tiles','wood']"
58,Twinte,48.8887915,2.2458912,119.79,5.53,"['carpet','tiles','wood']"
59,Zoomdog,52.0564395,20.0873091,140.16,1.94,"['carpet','tiles','wood']"
60,Babblestorm,57.4668982,31.10873,118.72,5.15,"['carpet','tiles','wood']"
61,Tagchat,46.398418,124.891039,149.74,0.5,"['carpet','tiles','wood']"
62,Rhyloo,40.6335639,20.5885853,134.17,1.47,"['carpet','tiles','wood']"
63,Cogibox,-23.5015338,-47.4525944,105.19,6.33,"['carpet','tiles','wood']"
64,BlogXS,7.9107391,98.3337983,147.02,1.69,"['carpet','tiles','wood']"
65,Livetube,31.851182,35.200835,142.19,3.38,"['carpet','tiles','wood']"
66,Feedfish,37.8967329,22.9286014,147.31,7.32,"['carpet','tiles','wood']"
67,Blogtags,38.6244719,21.4095934,137.71,1.09,"['carpet','tiles','wood']"
68,Cogilith,41.5122699,-8.4650216,118.43,6.05,"['carpet','tiles','wood']"
69,Oyonder,15.3549925,-91.458364,116.31,0.19,"['carpet','tiles','wood']"
70,Dabvine,25.714796,100.193584,134.58,8.81,"['carpet','tiles','wood']"
71,Agimba,-3.0114,133.7626,149.76,9.71,"['carpet','tiles','wood']"
72,Eamia,36.87492,108.413764,101.85,5.39,"['carpet','tiles','wood']"
73,Meeveo,-6.2461822,106.8323419,112.83,0.89,"['carpet','tiles','wood']"
74,Jamia,48.695223,2.190167,131.51,7.48,"['carpet','tiles','wood']"
75,Mudo,13.8195176,121.1729455,102.13,9.17,"['carpet','tiles','wood']"
76,Wikivu,39.8699419,-8.9175063,109,8.94,"['carpet','tiles','wood']"
77,Fivebridge,27.9805586,94.6884956,105.33,6.95,"['carpet','tiles','wood']"
78,Photobug,30.6107721,53.1911235,114.66,2.63,"['carpet','tiles','wood']"
79,Flashdog,-11.6110008,43.2853868,118.85,4.83,"['carpet','tiles','wood']"
80,Kamba,-14.2329823,-39.8579118,100.53,7.98,"['carpet','tiles','wood']"
81,Yakitri,52.5593051,13.4761485,123.67,0.78,"['carpet','tiles','wood']"
82,Innotype,48.9420658,25.7464148,125.84,7.68,"['carpet','tiles','wood']"
83,Mynte,48.738967,37.58435,127.65,5.94,"['carpet','tiles','wood']"
84,Skyvu,4.717029,-74.21225,141.64,8.19,"['carpet','tiles','wood']"
85,Skyba,46.7523145,33.2473218,120.01,6.65,"['carpet','tiles','wood']"
86,Skinix,40.1384545,45.4274541,110.63,8.36,"['carpet','tiles','wood']"
87,Gigazoom,27.318852,115.444319,142.89,1.08,"['carpet','tiles','wood']"
88,Divavu,45.5734042,-73.7316825,143.77,5.2,"['carpet','tiles','wood']"
89,Meezzy,-14.9186136,13.5321234,149.46,9.47,"['carpet','tiles','wood']"
90,Skippad,55.4618616,29.9874438,145.27,2.21,"['carpet','tiles','wood']"
91,Babbleblab,13.952977,121.341718,118.36,1.6,"['carpet','tiles','wood']"
92,Devbug,14.5473421,120.997522,107.05,5.41,"['carpet','tiles','wood']"
93,Jaxbean,51.7597721,17.1196937,103.22,8.62,"['carpet','tiles','wood']"
94,Meejo,35.4889372,139.3909552,129.75,1.26,"['carpet','tiles','wood']"
95,Youspan,-7.035,113.5599,133.49,5.75,"['carpet','tiles','wood']"
96,Ntag,51.2358934,23.5939963,104.45,0.3,"['carpet','tiles','wood']"
97,Photobug,42.5787371,20.2966257,120,1.49,"['carpet','tiles','wood']"
98,Skilith,39.533815,117.197903,103.22,3.38,"['carpet','tiles','wood']"
99,Plajo,46.152911,-71.885445,115.84,6.32,"['carpet','tiles','wood']"
100,Skimia,49.2121445,37.2665006,134.44,5.8,"['carpet','tiles','wood']"
101,Chatterpoint,-7.2863903,-78.5753117,109.8,7.29,"['carpet','tiles','wood']"
102,Jatri,5.9840985,116.0761121,137.04,5.41,"['carpet','tiles','wood']"
103,Eazzy,9.3711,122.8405,126.58,8.3,"['carpet','tiles','wood']"
104,Jaxbean,38.689897,115.780626,131.92,2.03,"['carpet','tiles','wood']"
105,Demizz,46.6473105,0.813275,132.68,1.6,"['carpet','tiles','wood']"
106,Thoughtblab,24.7660178,90.2561365,101.51,1.76,"['carpet','tiles','wood']"
107,Livefish,1.968543,-157.3936469,112.48,1.05,"['carpet','tiles','wood']"
108,Fivebridge,58.2529231,22.4850409,125.38,4.39,"['carpet','tiles','wood']"
109,Brainbox,14.7268634,100.7830826,116.14,0.46,"['carpet','tiles','wood']"
110,Fiveclub,-22.5077597,-44.0947303,149.87,1.22,"['carpet','tiles','wood']"
111,Quire,59.2254827,9.5589227,142.11,1.92,"['carpet','tiles','wood']"
112,Twitterwire,24.2233588,23.3005731,145.51,8.07,"['carpet','tiles','wood']"
113,Aimbu,56.8744773,16.6629189,127.06,0.48,"['carpet','tiles','wood']"
114,Avamba,50.5750633,16.6553945,147.01,4,"['carpet','tiles','wood']"
115,Yodoo,40.8318278,44.2797884,146.15,6.39,"['carpet','tiles','wood']"
116,Bluezoom,32.08543,35.33005,143.4,3.66,"['carpet','tiles','wood']"
117,Voonyx,49.63417,100.1625,108.39,3.25,"['carpet','tiles','wood']"
118,Chatterbridge,24.5063217,91.3565692,123.14,1.68,"['carpet','tiles','wood']"
119,Fivebridge,-31.372506,-64.182416,128.83,2.84,"['carpet','tiles','wood']"
120,Npath,45.7718709,126.6701902,135.96,9.07,"['carpet','tiles','wood']"
121,Riffpedia,-5.9345929,-79.222328,131.63,7.03,"['carpet','tiles','wood']"
122,BlogXS,39.7589933,22.28609,107.98,1.48,"['carpet','tiles','wood']"
123,Bluezoom,34.888685,111.607282,146.01,8.95,"['carpet','tiles','wood']"
124,Gabtype,53.0475258,90.944621,124.13,3.9,"['carpet','tiles','wood']"
125,Flashset,26.4363523,106.5589556,121,2.32,"['carpet','tiles','wood']"
126,Jayo,48.7266786,40.3751274,131.36,6.17,"['carpet','tiles','wood']"
127,Oozz,-22.4593525,-47.5369982,133.3,0.7,"['carpet','tiles','wood']"
128,Topicblab,16.7275474,103.7358277,118.11,2.8,"['carpet','tiles','wood']"
129,Gabtune,-2.5101996,-45.1120424,103.29,7.39,"['carpet','tiles','wood']"
130,Jetwire,41.4744811,19.7041069,111.08,7.01,"['carpet','tiles','wood']"
131,Gabtype,29.300814,120.070387,148.23,7.38,"['carpet','tiles','wood']"
132,Aivee,48.4018664,24.9415656,122.18,6.74,"['carpet','tiles','wood']"
133,Trudeo,25.941937,117.365052,142.73,1.87,"['carpet','tiles','wood']"
134,Skyble,-39.6241126,176.8270545,113.62,2.87,"['carpet','tiles','wood']"
135,Mita,40.2748289,-3.7968574,116.86,9.57,"['carpet','tiles','wood']"
136,Roomm,14.4432287,108.9918254,133.04,7.82,"['carpet','tiles','wood']"
137,Kazio,18.791255,109.410699,119.84,4.59,"['carpet','tiles','wood']"
138,Zava,32.652297,110.769132,136.69,2.26,"['carpet','tiles','wood']"
139,Pixonyx,55.7393377,37.6642542,111.95,0.08,"['carpet','tiles','wood']"
140,Linkbridge,49.63417,100.1625,118.07,9.09,"['carpet','tiles','wood']"
141,Dabvine,22.358416,114.128354,108.96,4.63,"['carpet','tiles','wood']"
142,Livetube,-31.6434099,29.5358464,123.37,1.05,"['carpet','tiles','wood']"
143,Fatz,40.3705555,44.5964855,105.74,1.88,"['carpet','tiles','wood']"
144,Jaloo,5.799059,-75.907993,103.54,9.36,"['carpet','tiles','wood']"
145,Ntag,41.2634902,-8.5011077,105.2,0.94,"['carpet','tiles','wood']"
146,Skinte,47.7334545,-3.4955428,111.68,3.28,"['carpet','tiles','wood']"
147,Thoughtworks,22.543096,114.057865,142.34,0.74,"['carpet','tiles','wood']"
148,Thoughtblab,38.7432706,-9.3719884,123.38,8.63,"['carpet','tiles','wood']"
149,Bluejam,14.9974643,-83.2251702,142.5,4.3,"['carpet','tiles','wood']"
150,Zoozzy,51.7111719,17.993399,133.96,0.06,"['carpet','tiles','wood']"
151,Mudo,8.5135012,124.6050668,124.05,1.64,"['carpet','tiles','wood']"
152,Viva,36.6484118,9.6146499,132.58,1.24,"['carpet','tiles','wood']"
153,Zooxo,-7.4797342,110.2176941,116.84,9.38,"['carpet','tiles','wood']"
154,Riffpath,-5.9640712,34.1225927,140.95,4.8,"['carpet','tiles','wood']"
155,Babbleset,52.96446,14.60461,113.71,9.8,"['carpet','tiles','wood']"
156,Dynava,3.2443317,99.4976356,105,5.15,"['carpet','tiles','wood']"
157,Lazzy,-1.133947,103.0702646,133.9,7.58,"['carpet','tiles','wood']"
158,Demimbu,27.8222933,-97.5788975,122.47,0.27,"['carpet','tiles','wood']"
159,Tagcat,29.198799,109.207451,102.19,7.25,"['carpet','tiles','wood']"
160,Feedfire,36.1219748,139.707963,101.23,2.13,"['carpet','tiles','wood']"
161,Twimm,-23.8158392,-45.3664809,131.11,3.05,"['carpet','tiles','wood']"
162,Rhyzio,22.5638303,114.1388306,129.89,0.3,"['carpet','tiles','wood']"
163,Dabjam,46.5838069,0.3350126,138.41,1.49,"['carpet','tiles','wood']"
164,Meejo,40.621506,119.9745295,110.23,1.22,"['carpet','tiles','wood']"
165,Mita,38.042805,114.514893,101.12,4.84,"['carpet','tiles','wood']"
166,Rhybox,50.8677076,19.2061348,127.08,5.35,"['carpet','tiles','wood']"
167,Eadel,-19.6633028,22.1936928,125.95,3.74,"['carpet','tiles','wood']"
168,Feedfire,30.1996024,73.6119469,120.42,1.75,"['carpet','tiles','wood']"
169,Roomm,43.82551,81.872025,110.5,9.36,"['carpet','tiles','wood']"
170,Lazz,42.1450502,24.7558475,141.07,0.36,"['carpet','tiles','wood']"
171,Meedoo,57.7314074,12.0595845,131.28,0.08,"['carpet','tiles','wood']"
172,Tagtune,40.4423844,-8.6946024,143.31,1.69,"['carpet','tiles','wood']"
173,Eire,31.323217,119.445437,138.68,9.73,"['carpet','tiles','wood']"
174,Avamba,-10.1916603,120.7005044,131.09,2.09,"['carpet','tiles','wood']"
175,Meezzy,53.1501463,24.8029784,102.95,5.06,"['carpet','tiles','wood']"
176,Yodo,26.6866896,-78.9712451,143.39,9.83,"['carpet','tiles','wood']"
177,Rhyloo,-24.0416026,-52.3693218,148.11,5.85,"['carpet','tiles','wood']"
178,Yakitri,35.0010118,-85.3162066,140.12,6.85,"['carpet','tiles','wood']"
179,Gigaclub,15.3098003,119.9994908,120.25,8.45,"['carpet','tiles','wood']"
180,Nlounge,-8.3650254,114.6453131,138.8,1.56,"['carpet','tiles','wood']"
181,Skyndu,49.8545281,18.6057328,117,0.66,"['carpet','tiles','wood']"
182,Mudo,30.518048,117.134282,131.28,1.61,"['carpet','tiles','wood']"
183,Geba,-6.8937212,106.2042252,127.77,9.92,"['carpet','tiles','wood']"
184,Kimia,-11.3442564,-75.5655147,144.51,2.9,"['carpet','tiles','wood']"
185,Edgewire,28.39895,113.02064,113,1.17,"['carpet','tiles','wood']"
186,Skyble,13.3587946,121.1711629,122.43,1.82,"['carpet','tiles','wood']"
187,Divavu,34.756916,114.441285,139.18,8.17,"['carpet','tiles','wood']"
188,Wordify,14.8126417,100.2936683,145.52,6.3,"['carpet','tiles','wood']"
189,Avavee,-13.831435,-171.7985223,123.5,6.28,"['carpet','tiles','wood']"
190,Jaloo,42.5572675,20.3027502,110.66,8.32,"['carpet','tiles','wood']"
191,Gigashots,44.043297,129.359811,149.46,6.77,"['carpet','tiles','wood']"
192,Tekfly,8.5311099,-80.3463754,105.45,8.87,"['carpet','tiles','wood']"
193,Ailane,-14.1462865,-71.4603621,112.88,7.33,"['carpet','tiles','wood']"
194,Trunyx,0.2826569,32.5662219,136.52,9.7,"['carpet','tiles','wood']"
195,Fivebridge,15.8515169,104.1698463,126.54,8.01,"['carpet','tiles','wood']"
196,Skinder,-34.6090822,-56.3628409,108.26,9.45,"['carpet','tiles','wood']"
197,Youbridge,9.6470386,125.602355,136.62,4.62,"['carpet','tiles','wood']"
198,Tagopia,-6.8843479,108.7927679,102.04,3.06,"['carpet','tiles','wood']"
199,Leexo,-13.5,48.86667,121.19,8.03,"['carpet','tiles','wood']"
200,Skibox,6.382615,124.789568,137.53,7.02,"['carpet','tiles','wood']"
201,Tambee,49.8167342,20.5901226,141.35,2.44,"['carpet','tiles','wood']"
202,Innotype,47.3892142,0.6942885,146.76,1,"['carpet','tiles','wood']"
203,Kayveo,49.0122792,17.2425732,117.24,8.8,"['carpet','tiles','wood']"
204,Wikibox,65.0588742,25.4549855,118.13,4.21,"['carpet','tiles','wood']"
205,Rhynoodle,35.4403783,36.65721,109.87,3.76,"['carpet','tiles','wood']"
206,Blogspan,38.8393743,-9.4606374,106.02,6.91,"['carpet','tiles','wood']"
207,Wordware,-16.4708895,46.7164256,140.38,8.05,"['carpet','tiles','wood']"
208,Fliptune,14.871038,-24.6949966,140.07,2.22,"['carpet','tiles','wood']"
209,Latz,-6.183459,106.7647475,125.27,9.36,"['carpet','tiles','wood']"
210,Demimbu,-6.7099134,111.1533456,138.88,9.49,"['carpet','tiles','wood']"
211,Rhybox,18.2943776,105.6745247,109.07,0.51,"['carpet','tiles','wood']"
212,Tavu,-8.7458539,121.8505679,142.06,9.32,"['carpet','tiles','wood']"
213,Bluejam,41.4981839,-8.3569915,123,4.95,"['carpet','tiles','wood']"
214,Fivespan,30.274084,120.15507,127.11,3.1,"['carpet','tiles','wood']"
215,Brainverse,55.73325,37.0410363,145.25,4.84,"['carpet','tiles','wood']"
216,Yacero,-6.893751,112.4514977,143.4,4.58,"['carpet','tiles','wood']"
217,Shuffletag,34.0542897,-4.4259259,137.67,3.58,"['carpet','tiles','wood']"
218,Realfire,8.34816,-71.85849,111.43,7.73,"['carpet','tiles','wood']"
219,Edgepulse,48.7381259,2.3536083,104.02,7.91,"['carpet','tiles','wood']"
220,Snaptags,-12.6117479,-76.6701475,146.24,0.17,"['carpet','tiles','wood']"
221,Zoomlounge,3.8024611,117.2205771,130.22,6.84,"['carpet','tiles','wood']"
222,Fliptune,46.48684,32.97498,139.09,2.71,"['carpet','tiles','wood']"
223,Kanoodle,55.80192,42.7731878,109.89,1.74,"['carpet','tiles','wood']"
224,Kayveo,9.812741,106.2992912,148.88,2.68,"['carpet','tiles','wood']"
225,Flashpoint,16.6678009,120.3841382,138.11,0.28,"['carpet','tiles','wood']"
226,Lazz,-7.7546695,112.1877315,127.91,0.89,"['carpet','tiles','wood']"
227,Jabbercube,40.3306084,21.7886602,133.94,3.4,"['carpet','tiles','wood']"
228,Zazio,42.383271,126.8080369,138.36,0.51,"['carpet','tiles','wood']"
229,Kaymbo,48.7525724,2.3881323,107.27,8.03,"['carpet','tiles','wood']"
230,Wikido,45.141789,124.825117,134.87,3.74,"['carpet','tiles','wood']"
231,Jayo,43.4945737,5.8978018,141.85,8.46,"['carpet','tiles','wood']"
232,Twimbo,41.43999,22.79536,118.55,6.32,"['carpet','tiles','wood']"
233,Yombu,14.5655554,121.0335158,126.29,3.55,"['carpet','tiles','wood']"
234,Fliptune,45.4972764,9.203123,144.94,2.4,"['carpet','tiles','wood']"
235,Dynabox,52.6029163,41.4669909,134.93,5.32,"['carpet','tiles','wood']"
236,Eabox,12.9061863,124.1164429,145.09,4.98,"['carpet','tiles','wood']"
237,Jamia,29.423417,116.991463,142.15,7.93,"['carpet','tiles','wood']"
238,Devcast,-7.1549929,109.5925139,127.19,0.81,"['carpet','tiles','wood']"
239,Yacero,13.9686682,120.7285858,134.61,0.24,"['carpet','tiles','wood']"
240,Brainverse,-8.401854,114.118103,109.06,6.64,"['carpet','tiles','wood']"
241,Ailane,48.7893977,9.1962771,137.08,5.15,"['carpet','tiles','wood']"
242,Viva,-14.2412572,31.3198491,147.79,1.66,"['carpet','tiles','wood']"
243,Dabfeed,39.856317,96.779317,106.29,9.12,"['carpet','tiles','wood']"
244,Meeveo,52.31683,-112.71861,137.93,7.27,"['carpet','tiles','wood']"
245,Thoughtblab,47.3005,29.1224979,134.37,0.1,"['carpet','tiles','wood']"
246,Voolia,39.0865525,107.9808971,115.2,9.51,"['carpet','tiles','wood']"
247,Gigashots,-7.7888522,114.1914951,135.44,5.91,"['carpet','tiles','wood']"
248,Twitterbridge,31.018498,109.463987,118.27,4.08,"['carpet','tiles','wood']"
249,Gabspot,14.7384717,-6.1182429,136.5,9.48,"['carpet','tiles','wood']"
250,Jazzy,14.9165428,-17.1203909,125.71,5.5,"['carpet','tiles','wood']"
251,Bubbletube,27.335916,113.500997,101.96,5.28,"['carpet','tiles','wood']"
252,Brainsphere,-7.938718,112.5394091,139.27,4.97,"['carpet','tiles','wood']"
253,Fanoodle,38.8828903,-9.3711123,148.76,2.83,"['carpet','tiles','wood']"
254,Quire,22.9155908,91.8580145,132.18,2.92,"['carpet','tiles','wood']"
255,Realbridge,35.47,-97.52,147.89,8.09,"['carpet','tiles','wood']"
256,Babbleset,32.874735,117.531622,144,8,"['carpet','tiles','wood']"
257,Feedbug,46.5641539,16.443954,101.74,4.9,"['carpet','tiles','wood']"
259,Photobug,10.142762,-85.454983,120.02,6.63,"['carpet','tiles','wood']"
260,Yotz,43.03596,-82.1616,118.71,3.23,"['carpet','tiles','wood']"
261,Jabberstorm,-16.4067401,-71.3764996,148,1.34,"['carpet','tiles','wood']"
262,Gabcube,-19.6633028,22.1936928,139.4,1.8,"['carpet','tiles','wood']"
263,Voonte,-29.362503,-51.08671,134.04,3.03,"['carpet','tiles','wood']"
264,Leenti,26.207631,113.767529,134.69,0.65,"['carpet','tiles','wood']"
265,Jaxnation,-7.0250344,113.5758261,101.71,2.66,"['carpet','tiles','wood']"
258,Twinte,-24.6,26.43,100.13,0.28,"['carpet','tiles','wood']"
266,Roombo,52.8131502,16.8357836,129.3,3.6,"['carpet','tiles','wood']"
267,Brainverse,39.7597077,-8.6721329,134.49,3.87,"['carpet','tiles','wood']"
268,Gevee,-6.8892965,112.3635806,108.45,2.3,"['carpet','tiles','wood']"
269,Lajo,-8.2665992,113.9774369,123.9,5.25,"['carpet','tiles','wood']"
270,Flashdog,14.565396,120.999932,148.27,5.49,"['carpet','tiles','wood']"
271,Tazzy,53.7090279,18.1802823,137.59,5.35,"['carpet','tiles','wood']"
272,Twimbo,-7.3268042,108.7971149,112.93,2.58,"['carpet','tiles','wood']"
273,Quatz,30.2977417,30.9783805,127.05,8.03,"['carpet','tiles','wood']"
274,Yamia,19.214452,110.019489,104.16,2.91,"['carpet','tiles','wood']"
275,Jaxnation,-7.3706874,108.5342487,133.09,8.34,"['carpet','tiles','wood']"
276,Mymm,43.499458,16.5426001,123.4,8.83,"['carpet','tiles','wood']"
277,Voonte,32.573115,116.787128,126.37,7.98,"['carpet','tiles','wood']"
278,Kare,34.540852,109.44096,107.8,3.78,"['carpet','tiles','wood']"
279,Ntags,-7.5831538,108.6353764,124.54,9.86,"['carpet','tiles','wood']"
280,Fliptune,42.4782102,78.3955986,118.19,1.68,"['carpet','tiles','wood']"
281,Aivee,45.4141891,19.6990997,131.47,3.59,"['carpet','tiles','wood']"
282,Muxo,26.312444,99.850365,147.47,8.37,"['carpet','tiles','wood']"
283,Dynabox,31.6749725,-106.4181775,142.37,5.2,"['carpet','tiles','wood']"
284,Gigaclub,-15.8272432,-50.265662,136.13,0.72,"['carpet','tiles','wood']"
285,Eidel,51.14554,21.7749021,105.77,0.3,"['carpet','tiles','wood']"
286,Tanoodle,13.3023013,123.6374208,100.34,4.24,"['carpet','tiles','wood']"
287,Photofeed,50.5089112,26.2566443,120.13,1.51,"['carpet','tiles','wood']"
288,Avamm,24.094765,116.00509,128.96,2.62,"['carpet','tiles','wood']"
289,Eare,54.7214094,-113.2861822,136.63,6.92,"['carpet','tiles','wood']"
290,Yoveo,-16.9794093,-67.2162619,118.12,7,"['carpet','tiles','wood']"
291,Photojam,-1.048106,103.380604,112.6,8.43,"['carpet','tiles','wood']"
292,Jabbersphere,-6.898384,111.885002,131.91,6.5,"['carpet','tiles','wood']"
293,Photobug,52.0095284,4.3342058,114.37,3.64,"['carpet','tiles','wood']"
294,Shuffletag,15.9448806,120.1907996,107.45,1.85,"['carpet','tiles','wood']"
295,Babblestorm,57.6947552,11.8194902,105.9,1.16,"['carpet','tiles','wood']"
296,Topiczoom,41.5024723,-8.3487249,108.34,0.21,"['carpet','tiles','wood']"
297,Tekfly,32.9886195,47.4245319,117.4,7.17,"['carpet','tiles','wood']"
298,Tazz,-0.9002915,119.8779987,147.24,1.4,"['carpet','tiles','wood']"
299,Realcube,-14.51688,-71.88636,139.42,2.24,"['carpet','tiles','wood']"
300,Bluezoom,-7.4178714,108.6917922,112.61,7.3,"['carpet','tiles','wood']"
301,Riffpath,-2.7158764,30.6286186,102.14,4.22,"['carpet','tiles','wood']"
302,Livetube,41.3119638,-8.151597,119.28,1.92,"['carpet','tiles','wood']"
303,Bubblemix,7.7916349,122.7785327,144.23,2.22,"['carpet','tiles','wood']"
304,Twitterbridge,-21.2080662,-46.941659,104.66,6.06,"['carpet','tiles','wood']"
305,Bluejam,35.8504632,140.3548218,117.18,0.46,"['carpet','tiles','wood']"
306,Trupe,-7.7607338,112.1698476,109.22,9.69,"['carpet','tiles','wood']"
307,Blogtag,-10.1917127,123.5616058,127.66,3.13,"['carpet','tiles','wood']"
308,Wordpedia,39.975699,116.050239,130.61,4.47,"['carpet','tiles','wood']"
309,Dabshots,40.786334,20.7077766,101.67,3.3,"['carpet','tiles','wood']"
310,Gigabox,27.106637,114.964086,111.77,0.28,"['carpet','tiles','wood']"
311,Jetpulse,21.270702,110.359368,111.96,5.48,"['carpet','tiles','wood']"
312,Jabbersphere,26.3448341,127.833984,125.8,7.19,"['carpet','tiles','wood']"
313,Kaymbo,27.353091,118.015602,134.05,1.57,"['carpet','tiles','wood']"
314,Twitterlist,-7.543398,110.822966,105.28,8.65,"['carpet','tiles','wood']"
315,Realcube,-14.0699124,-39.5278264,110.34,2.87,"['carpet','tiles','wood']"
316,Einti,-15.4384565,-74.6180833,132.74,8.18,"['carpet','tiles','wood']"
317,Flipbug,47.0163969,-68.1430029,104.17,9.52,"['carpet','tiles','wood']"
318,Brainsphere,43.4945737,5.8978018,115.08,3.82,"['carpet','tiles','wood']"
319,Izio,-15.7665609,-70.2594346,145.57,3.97,"['carpet','tiles','wood']"
320,Eamia,4.994942,-75.8048759,112.31,8.18,"['carpet','tiles','wood']"
321,Bubblemix,45.6539183,16.1813069,131.64,6.29,"['carpet','tiles','wood']"
322,Kaymbo,-2.0992602,133.599128,130.87,5.53,"['carpet','tiles','wood']"
323,Livepath,4.5791946,13.6767958,121.98,1.65,"['carpet','tiles','wood']"
324,Mycat,5.2843859,-75.259705,134.08,2.29,"['carpet','tiles','wood']"
325,Voomm,16.663904,121.451539,104.13,4.48,"['carpet','tiles','wood']"
326,Teklist,13.7204688,121.073562,109.23,5.02,"['carpet','tiles','wood']"
327,Jamia,-22.5899119,-47.5177229,114.64,7.2,"['carpet','tiles','wood']"
328,Yodo,49.189451,-0.804935,138.61,9.64,"['carpet','tiles','wood']"
329,Flipbug,59.4205168,17.8434702,110.27,2.33,"['carpet','tiles','wood']"
330,Realmix,33.917649,106.309127,146.73,0.29,"['carpet','tiles','wood']"
331,Wordware,39.964054,116.714967,121.51,0.8,"['carpet','tiles','wood']"
332,Ozu,50.5927407,107.5886948,121.57,0.92,"['carpet','tiles','wood']"
333,Meejo,35.916433,14.5025108,142.59,0.3,"['carpet','tiles','wood']"
334,Gabcube,-2.1709979,-79.9223592,110.03,6.97,"['carpet','tiles','wood']"
335,Blogtags,43.0429124,1.9038837,109.6,9.57,"['carpet','tiles','wood']"
336,Skidoo,58.6527772,16.1834327,119.35,5.69,"['carpet','tiles','wood']"
337,Zoomdog,17.75,121.7333298,116.21,3.63,"['carpet','tiles','wood']"
338,Fiveclub,48.3018611,23.4764363,145.06,4.8,"['carpet','tiles','wood']"
339,Vidoo,31.16384,98.558093,125.32,1.24,"['carpet','tiles','wood']"
340,Gabtype,-9.4583,120.0497,137.05,1.4,"['carpet','tiles','wood']"
341,Zoombeat,-9.6701,119.0511,134.68,3.33,"['carpet','tiles','wood']"
342,Meevee,34.7728913,138.0126666,120.81,9.13,"['carpet','tiles','wood']"
343,Trunyx,15.9535593,121.1098151,101.53,6.12,"['carpet','tiles','wood']"
344,Jetpulse,-27.4887196,-58.9495941,105.41,4.38,"['carpet','tiles','wood']"
345,Yacero,37.8016324,48.907262,125.35,8.93,"['carpet','tiles','wood']"
346,Centidel,-21.4096214,25.5858711,139.17,1.78,"['carpet','tiles','wood']"
347,Podcat,51.4986953,-0.1550173,149.33,1.86,"['carpet','tiles','wood']"
348,Aibox,52.415113,13.1468678,135.07,4.3,"['carpet','tiles','wood']"
349,Edgetag,27.236635,108.912375,143.02,5.9,"['carpet','tiles','wood']"
350,Meejo,35.8875895,8.8886672,128.44,8.3,"['carpet','tiles','wood']"
351,Jaxspan,34.7299999,-86.59,119.03,2.08,"['carpet','tiles','wood']"
352,Roombo,30.9765009,30.9531791,122.12,4.05,"['carpet','tiles','wood']"
353,Centidel,33.4293662,36.2223985,137.22,8.19,"['carpet','tiles','wood']"
354,Flashpoint,61.2698079,17.09514,133.13,6.58,"['carpet','tiles','wood']"
355,Skipstorm,46.18869,90.80581,124.01,7.76,"['carpet','tiles','wood']"
356,Jayo,43.3045595,44.9887945,121.14,4.55,"['carpet','tiles','wood']"
357,Fliptune,62.4857735,30.6173514,132.71,5.4,"['carpet','tiles','wood']"
358,Photobean,34.7964208,132.093018,132.88,5.62,"['carpet','tiles','wood']"
359,Jetpulse,28.122424,109.746848,101.47,7.51,"['carpet','tiles','wood']"
360,Feedfire,42.2470995,2.0763253,122.71,9.14,"['carpet','tiles','wood']"
361,Tagpad,15.0319912,-91.7358506,141.28,2.88,"['carpet','tiles','wood']"
362,Eabox,5.5333804,95.24233,109.8,3.76,"['carpet','tiles','wood']"
363,Yata,40.3034691,44.3930377,140.96,3.11,"['carpet','tiles','wood']"
364,Shuffledrive,14.554384,121.0460866,144.63,1.26,"['carpet','tiles','wood']"
365,Devbug,-38.9126083,-67.976045,133.85,9.28,"['carpet','tiles','wood']"
366,Katz,49.8278894,6.0058975,136.38,8.15,"['carpet','tiles','wood']"
367,Twimbo,39.0493793,121.7791025,124,3.49,"['carpet','tiles','wood']"
368,Skippad,38.7433547,-8.0759339,136.92,0.34,"['carpet','tiles','wood']"
369,Quamba,8.287423,100.1927389,135.29,0.64,"['carpet','tiles','wood']"
370,Wordtune,49.830017,21.14379,147.41,8.54,"['carpet','tiles','wood']"
371,Quinu,32.3964882,36.6498717,121.83,8.69,"['carpet','tiles','wood']"
372,Ozu,32.0550488,131.4937793,131.39,0.77,"['carpet','tiles','wood']"
373,Riffpath,13.5336211,-14.7695962,104.39,9.38,"['carpet','tiles','wood']"
374,Skyndu,-27.3607338,-53.3963199,100.38,5.02,"['carpet','tiles','wood']"
375,Buzzshare,22.265811,113.543784,104.26,4.53,"['carpet','tiles','wood']"
376,Tavu,50.5763759,22.059689,125.71,7.58,"['carpet','tiles','wood']"
377,Oyoloo,30.9658281,72.5694175,104.87,1.97,"['carpet','tiles','wood']"
378,Babblestorm,40.667433,122.235084,125.41,4.61,"['carpet','tiles','wood']"
379,Devpoint,50.5878419,13.8083154,141.98,4.96,"['carpet','tiles','wood']"
380,Kanoodle,30.572815,104.066801,123.11,3.43,"['carpet','tiles','wood']"
381,Quimm,32.629398,110.798266,123.61,7.39,"['carpet','tiles','wood']"
382,Kare,37.429832,110.88907,131.54,8.36,"['carpet','tiles','wood']"
383,Meeveo,13.724167,123.5403713,126.89,2.87,"['carpet','tiles','wood']"
384,Edgeify,43.9704382,12.4867883,105.96,3.22,"['carpet','tiles','wood']"
385,Blogtags,-25.6188002,-54.5616444,104.37,1.2,"['carpet','tiles','wood']"
386,Realblab,-1.0233937,103.8042382,136.06,1.92,"['carpet','tiles','wood']"
387,Yodoo,32.14237,61.4469,114.5,8.96,"['carpet','tiles','wood']"
388,Zooveo,-29.942289,-50.9907877,126.25,4.54,"['carpet','tiles','wood']"
389,Youtags,14.2845667,122.6794094,138.29,1.7,"['carpet','tiles','wood']"
390,Tazz,42.6962642,2.8797149,141.07,6.82,"['carpet','tiles','wood']"
391,Viva,14.6072726,-90.6793295,122.4,4.2,"['carpet','tiles','wood']"
392,Bluejam,49.6106567,18.735973,106.92,2.88,"['carpet','tiles','wood']"
393,Brainlounge,25.849502,107.280659,124,3.18,"['carpet','tiles','wood']"
394,Kanoodle,-31.4422483,-64.1511226,118.81,9.82,"['carpet','tiles','wood']"
395,LiveZ,44.0643415,1.1011089,131.94,5.87,"['carpet','tiles','wood']"
396,DabZ,41.5327252,20.4232296,114.33,3.91,"['carpet','tiles','wood']"
397,Topicstorm,-23.7130018,-46.4140801,129.78,7.93,"['carpet','tiles','wood']"
398,Feedfire,9.3226016,13.393389,110.36,5.18,"['carpet','tiles','wood']"
399,Avaveo,25.4251732,68.7514645,131.41,6.46,"['carpet','tiles','wood']"
400,Mynte,36.285616,115.147814,138.19,3.2,"['carpet','tiles','wood']"
401,Gigaclub,-7.643739,110.284601,138,7.67,"['carpet','tiles','wood']"
402,Youfeed,13.447898,22.4649083,137.96,8.1,"['carpet','tiles','wood']"
403,Edgeblab,37.189822,112.176206,148.68,8.26,"['carpet','tiles','wood']"
404,Rhynyx,30.780217,120.644805,128.08,4.85,"['carpet','tiles','wood']"
405,Skibox,-2.9252,119.9413,103.96,4,"['carpet','tiles','wood']"
406,Lajo,-7.2355945,111.5417207,135.78,3.04,"['carpet','tiles','wood']"
407,Agimba,51.6515663,18.4344355,104.3,8.11,"['carpet','tiles','wood']"
408,Jatri,16.2850333,95.6799816,128.29,6.01,"['carpet','tiles','wood']"
409,Kazu,47.524025,124.458692,106.95,0.95,"['carpet','tiles','wood']"
410,Fliptune,31.491169,120.31191,125.47,5.39,"['carpet','tiles','wood']"
411,Photospace,-6.8651955,106.5849256,134.57,1.26,"['carpet','tiles','wood']"
412,Talane,25.8056887,68.4065979,146.87,9.49,"['carpet','tiles','wood']"
413,Divape,41.4292615,-8.1757379,134,5.07,"['carpet','tiles','wood']"
414,Katz,54.4168102,27.2930165,134.43,3.51,"['carpet','tiles','wood']"
415,Livetube,43.7624891,27.2163113,135.76,8.77,"['carpet','tiles','wood']"
416,Riffpath,9.9372776,105.6236585,112.87,4.3,"['carpet','tiles','wood']"
417,Ntag,33.4658131,-112.0244867,123.06,0.88,"['carpet','tiles','wood']"
418,Flashset,-32.947692,-60.6743215,136.9,0.49,"['carpet','tiles','wood']"
419,Cogilith,43.2588087,45.4197638,145.81,4.4,"['carpet','tiles','wood']"
420,Realfire,4.5422628,-73.0169135,119.97,8.19,"['carpet','tiles','wood']"
421,Bluezoom,42.0813751,48.2792467,145,0.47,"['carpet','tiles','wood']"
422,Oba,46.7530428,-71.2196569,121.46,5.22,"['carpet','tiles','wood']"
423,Latz,-6.5881066,105.6823124,108.78,6.65,"['carpet','tiles','wood']"
424,Quamba,29.4110744,71.6420004,136.65,6.81,"['carpet','tiles','wood']"
425,Feedfire,40.8385582,24.3031958,108.71,1.67,"['carpet','tiles','wood']"
426,Dabshots,-27.9699645,26.77027,116.93,4.18,"['carpet','tiles','wood']"
427,Teklist,45.1761098,20.9132879,116.23,5.27,"['carpet','tiles','wood']"
428,Browseblab,16.1160065,100.8451467,101.02,7.23,"['carpet','tiles','wood']"
429,Browsedrive,-6.831959,107.0805202,106.74,7.3,"['carpet','tiles','wood']"
430,Fanoodle,-7.268358,108.3237655,136.44,0.24,"['carpet','tiles','wood']"
431,Viva,46.6211188,30.7719233,124.18,5.13,"['carpet','tiles','wood']"
432,Oyope,-6.9955768,112.2950314,105.93,4.81,"['carpet','tiles','wood']"
433,Kwimbee,-27.0501654,-55.5746294,120.06,8.92,"['carpet','tiles','wood']"
434,Twitterlist,-6.8750244,111.9850391,146.09,1.49,"['carpet','tiles','wood']"
435,Ntags,51.8909212,21.0863266,103.91,2.58,"['carpet','tiles','wood']"
436,Riffwire,16.6143698,-7.2598913,120.06,4.11,"['carpet','tiles','wood']"
437,Tagtune,-6.5114699,106.8325872,146.73,1.22,"['carpet','tiles','wood']"
438,Trilia,-8.2416877,111.245751,114.4,6.92,"['carpet','tiles','wood']"
439,Oba,38.263746,114.644894,109.36,9.16,"['carpet','tiles','wood']"
440,Quatz,14.5679735,121.0210496,131.95,1.88,"['carpet','tiles','wood']"
441,Skimia,13.3023013,123.6374208,121.63,0.28,"['carpet','tiles','wood']"
442,Pixoboo,55.751248,37.785402,145.77,2.46,"['carpet','tiles','wood']"
443,Izio,9.2034963,12.4953899,117.58,7.2,"['carpet','tiles','wood']"
444,Mycat,-31.6308,-71.1653,133.29,4.57,"['carpet','tiles','wood']"
445,Jetwire,13.3041159,-14.3864656,104.25,2.71,"['carpet','tiles','wood']"
446,Jabbercube,31.647135,120.93382,112.73,6.49,"['carpet','tiles','wood']"
447,Skajo,50.1424249,15.1188883,130.83,9.95,"['carpet','tiles','wood']"
448,Babbleblab,40.4168034,23.0102888,111.73,9.61,"['carpet','tiles','wood']"
449,Thoughtstorm,-32.0974476,23.0101345,143.61,8.99,"['carpet','tiles','wood']"
450,Viva,45.7451347,4.8252311,124.89,4.24,"['carpet','tiles','wood']"
451,Meedoo,35.2617507,57.973082,122.05,2.95,"['carpet','tiles','wood']"
452,Wordtune,37.943121,115.217658,145.12,8.77,"['carpet','tiles','wood']"
453,Jayo,-7.7076152,114.0369075,125.9,4.76,"['carpet','tiles','wood']"
454,Trudoo,31.3115396,120.6947551,101.08,8.88,"['carpet','tiles','wood']"
455,Quamba,54.0085653,20.0706038,109.23,9.9,"['carpet','tiles','wood']"
456,Vimbo,23.0664459,113.1964636,120.73,1.25,"['carpet','tiles','wood']"
457,Skipfire,49.8381802,20.9789037,104.14,9.39,"['carpet','tiles','wood']"
458,Vimbo,21.481291,109.120161,138.15,7.51,"['carpet','tiles','wood']"
459,Thoughtbridge,16.7315698,104.0769024,105.4,1.56,"['carpet','tiles','wood']"
460,Rhyzio,45.1888273,39.6438647,145.67,8.08,"['carpet','tiles','wood']"
461,Flashset,13.8170825,101.3052635,148.77,4.79,"['carpet','tiles','wood']"
462,Gabcube,7.363608,124.783718,100.72,9.24,"['carpet','tiles','wood']"
463,Voolia,-11.6551492,-76.5026246,148.1,2.38,"['carpet','tiles','wood']"
464,Yombu,49.9390977,14.5064706,126.39,0.99,"['carpet','tiles','wood']"
465,Gabspot,58.7462917,26.3972118,129.98,8.68,"['carpet','tiles','wood']"
466,Skyvu,31.058765,121.315718,105.79,5.43,"['carpet','tiles','wood']"
467,Midel,29.299402,115.980074,139.34,6.08,"['carpet','tiles','wood']"
468,Babbleset,15.8206635,103.7636752,119.56,7.55,"['carpet','tiles','wood']"
469,Oozz,29.990948,116.659999,124.25,7.47,"['carpet','tiles','wood']"
470,Voolith,33.999466,-117.6834051,129.97,3.57,"['carpet','tiles','wood']"
471,Ntags,30.699439,115.078981,137.11,1.77,"['carpet','tiles','wood']"
472,Lajo,45.446079,11.0057554,134.76,1.06,"['carpet','tiles','wood']"
473,Shufflester,-7.0265442,110.1879106,111.11,8.42,"['carpet','tiles','wood']"
474,Youfeed,46.585652,123.915392,126.31,8.88,"['carpet','tiles','wood']"
475,DabZ,6.4360112,-73.28833,131.09,7.19,"['carpet','tiles','wood']"
476,Skippad,-6.562,105.9917,147.55,7.88,"['carpet','tiles','wood']"
477,Shufflester,55.2259313,36.6083916,116.14,3.26,"['carpet','tiles','wood']"
478,Shuffletag,41.88306,21.1275,103.98,3.51,"['carpet','tiles','wood']"
479,Youtags,1.6408734,-75.4111644,127.73,7.37,"['carpet','tiles','wood']"
480,Zooveo,36.9714,126.4542,103.49,6.62,"['carpet','tiles','wood']"
481,Mynte,-6.663164,106.7289847,147.18,8.3,"['carpet','tiles','wood']"
482,Quinu,2.093257,117.457497,117.78,8.11,"['carpet','tiles','wood']"
483,Photospace,1.973103,34.0641419,132.45,1.1,"['carpet','tiles','wood']"
484,Youtags,36.2062933,44.0088697,143.28,9.92,"['carpet','tiles','wood']"
485,Jaloo,9.9010414,-83.9977527,100.25,9.74,"['carpet','tiles','wood']"
486,Brightbean,59.3019771,18.0885223,133.35,6.01,"['carpet','tiles','wood']"
487,Yotz,34.0643502,-117.2847875,116.86,8.56,"['carpet','tiles','wood']"
488,Avavee,53.0353444,5.6840137,144.76,3.3,"['carpet','tiles','wood']"
489,Feedbug,21.0033744,-89.6409417,122.89,5.1,"['carpet','tiles','wood']"
490,Jaloo,53.9732574,123.9092222,142.35,4.49,"['carpet','tiles','wood']"
491,Devshare,31.800137,115.416027,114.1,4.79,"['carpet','tiles','wood']"
492,Plambee,-9.9304279,-77.6579077,141.31,7.13,"['carpet','tiles','wood']"
873,Photofeed,46.324534,129.567985,136.99,2.2,"['carpet','tiles','wood']"
874,Eazzy,-16.4078661,-49.1828385,148.86,9.04,"['carpet','tiles','wood']"
875,Zoombeat,30.8254669,30.8139165,130.65,9.74,"['carpet','tiles','wood']"
876,Skalith,45.70734,5.534063,116.16,4.56,"['carpet','tiles','wood']"
7,Meeveo,34.819583,32.4608775,141.92,5.26,"['carpet','cement','tiles','wood']"
8,Youtags,29.04527,120.433275,105.35,1.31,"['carpet','cement','tiles','wood']"
708,Feedmix,40.232604,116.410742,146.38,8.32,"['carpet','tiles','wood']"
797,Dabshots,39.3547141,67.8569785,118.36,3.11,"['carpet','tiles','wood']"
493,Flashset,40.1315199,68.4829804,146.24,6.72,"['carpet','tiles','wood']"
494,Edgepulse,33.437877,113.609286,149.3,3.66,"['carpet','tiles','wood']"
495,Demimbu,40.833907,19.5538336,140.18,4.01,"['carpet','tiles','wood']"
496,Myworks,33.437877,113.609286,143.68,4.26,"['carpet','tiles','wood']"
497,Topicware,-7.6552991,109.9288452,145.23,4.18,"['carpet','tiles','wood']"
498,Oloo,25.606486,100.267638,121.22,7.07,"['carpet','tiles','wood']"
499,Mydeo,29.31718,89.054565,140.2,8.01,"['carpet','tiles','wood']"
500,Wikibox,30.973935,120.639958,109.69,2.19,"['carpet','tiles','wood']"
501,Tagchat,45.9400646,-74.1213151,139.68,4.27,"['carpet','tiles','wood']"
502,Realbridge,33.999466,-117.6834051,103.06,7.83,"['carpet','tiles','wood']"
503,Zoombeat,-36.6396492,-64.3080703,124.9,2.68,"['carpet','tiles','wood']"
504,Eire,21.5192887,109.170221,127.74,3.96,"['carpet','tiles','wood']"
505,Fivebridge,31.7777597,35.2346035,142.3,6.83,"['carpet','tiles','wood']"
506,Kwinu,40.4776836,45.0525325,130.1,1.14,"['carpet','tiles','wood']"
507,Demimbu,28.924088,93.825006,140.58,6.77,"['carpet','tiles','wood']"
508,Plambee,47.2550409,-1.5401497,112.31,9.97,"['carpet','tiles','wood']"
509,Viva,28.0093247,120.6569721,107.25,0.04,"['carpet','tiles','wood']"
510,Minyx,-29.6829126,-51.4684153,133.35,6.46,"['carpet','tiles','wood']"
511,Quimba,40.9629693,20.6377502,146,0.05,"['carpet','tiles','wood']"
512,Skyvu,6.2245859,101.8109253,131.03,7.58,"['carpet','tiles','wood']"
513,Devshare,45.0543662,34.3179269,144.8,0.32,"['carpet','tiles','wood']"
2,Livefish,30.4302577,61.8321457,140.44,8.98,"['carpet','tiles']"
3,Demivee,-8.1265731,111.813634,125.3,3.38,"['carpet','tiles']"
4,Photospace,30.1738031,69.9069312,110.96,1.87,"['carpet','tiles']"
514,Skyba,-6.7487502,111.0318829,144.92,1.81,"['carpet','tiles','wood']"
515,Tekfly,-7.4212735,107.172085,141.07,7.58,"['carpet','tiles','wood']"
516,Topiczoom,46.761348,124.23692,112.11,7.09,"['carpet','tiles','wood']"
517,Jaxspan,-17.48333,-63.7,107.71,9.61,"['carpet','tiles','wood']"
518,Plambee,25.770509,113.014717,125.08,3.72,"['carpet','tiles','wood']"
519,Feedbug,44.3623348,19.3629829,131.84,3.68,"['carpet','tiles','wood']"
520,Photobean,14.5748,33.3373,128.1,9.39,"['carpet','tiles','wood']"
521,Fivebridge,29.338873,110.525449,100.44,0.7,"['carpet','tiles','wood']"
522,Realbridge,47.49116,3.91302,131.59,3.14,"['carpet','tiles','wood']"
523,Skajo,38.304477,116.838834,124.06,0.74,"['carpet','tiles','wood']"
524,Gigashots,36.792339,10.6295091,122.34,1.35,"['carpet','tiles','wood']"
525,Wikibox,6.2958736,101.7296049,110.35,2.55,"['carpet','tiles','wood']"
526,Zazio,68.62602,-95.87836,145.37,0.44,"['carpet','tiles','wood']"
527,Eidel,14.6733187,121.0601862,129.65,9.15,"['carpet','tiles','wood']"
528,Topicware,15.3657777,-90.4792939,134.41,2.47,"['carpet','tiles','wood']"
529,Youtags,-8.3941828,115.1177654,128.31,0.07,"['carpet','tiles','wood']"
530,Avaveo,48.8466523,2.2582125,147.89,0.41,"['carpet','tiles','wood']"
531,LiveZ,-7.9675496,110.3368391,134.8,2.25,"['carpet','tiles','wood']"
794,Camido,-6.7332152,111.1950767,111.39,3.26,"['carpet','tiles','wood']"
795,Tagfeed,22.141482,113.83012,132.96,6.28,"['carpet','tiles','wood']"
796,Oyoloo,46.7260141,142.5226178,117.9,4.71,"['carpet','tiles','wood']"
798,Youspan,49.24993,-55.04816,141.78,6.98,"['carpet','tiles','wood']"
799,Topiclounge,27.69417,109.73583,146.44,7.17,"['carpet','tiles','wood']"
532,Fatz,49.8151822,19.3771749,141.92,7.41,"['carpet','tiles','wood']"
533,Linktype,-26.1631828,27.8252814,106.46,9.87,"['carpet','tiles','wood']"
534,Yozio,55.889724,60.7444752,108.22,9.22,"['carpet','tiles','wood']"
535,Gigabox,42.1165506,-88.0549221,113.51,7.45,"['carpet','tiles','wood']"
536,Buzzbean,55.8240814,65.5756726,141,6,"['carpet','tiles','wood']"
537,Bubblebox,25.692699,117.847115,103.51,5.55,"['carpet','tiles','wood']"
538,Skyba,33.989451,105.097568,132.46,3.46,"['carpet','tiles','wood']"
539,Fatz,-28.8394041,-66.9476782,115.82,9.81,"['carpet','tiles','wood']"
540,Dynabox,13.9214806,-86.1268337,122.87,7.25,"['carpet','tiles','wood']"
541,Wordware,49.8807,115.72526,143.84,8.07,"['carpet','tiles','wood']"
542,Gigaclub,6.3230608,8.1120116,125.55,8.82,"['carpet','tiles','wood']"
543,Skinix,38.0230869,23.8724272,114.86,8.95,"['carpet','tiles','wood']"
544,Browsezoom,7.1797684,2.0714223,123.99,0.07,"['carpet','tiles','wood']"
545,Izio,-22.4720256,-43.8273373,119.05,4.33,"['carpet','tiles','wood']"
547,Fliptune,-27.0007882,27.3733989,103.37,7.99,"['carpet','tiles','wood']"
548,Zooveo,11.1148457,99.4450439,122.49,6.34,"['carpet','tiles','wood']"
549,Tambee,41.669412,112.915135,120.89,9.03,"['carpet','tiles','wood']"
550,Linkbridge,37.810661,120.758848,141.77,1.2,"['carpet','tiles','wood']"
551,Trilia,-34.5434158,-58.5867617,116.03,7.21,"['carpet','tiles','wood']"
552,Meevee,36.8537392,-76.2652909,122.81,3.93,"['carpet','tiles','wood']"
553,Realcube,-6.8353325,108.5151507,130.55,6.26,"['carpet','tiles','wood']"
554,Gigashots,55.807167,37.500595,114.55,3.08,"['carpet','tiles','wood']"
555,Wordtune,42.5257603,21.1225078,102.83,3.46,"['carpet','tiles','wood']"
556,Zoovu,-38.848827,-68.119936,138.86,8.2,"['carpet','tiles','wood']"
557,Gevee,-22.9531705,-46.5423239,102.55,1.38,"['carpet','tiles','wood']"
558,Quire,47.6126,107.0219496,101.76,3.82,"['carpet','tiles','wood']"
559,Tagopia,42.76631,129.427066,146.19,5.74,"['carpet','tiles','wood']"
560,Blognation,9.88293,-85.529061,142.49,9.39,"['carpet','tiles','wood']"
561,Jayo,59.2963732,18.068622,149.55,8.95,"['carpet','tiles','wood']"
562,Tambee,28.0846121,-15.4331673,104.11,6.7,"['carpet','tiles','wood']"
563,Skimia,12.7684177,-87.1310668,132.49,8.03,"['carpet','tiles','wood']"
617,Npath,38.0970415,21.4183073,142.33,5.66,"['carpet','tiles','wood']"
618,Yoveo,11.2131346,4.579209,105.43,9.19,"['carpet','tiles','wood']"
619,Dablist,38.1625093,21.6682269,111.96,0.65,"['carpet','tiles','wood']"
620,Oloo,31.191643,121.389262,132.09,3.62,"['carpet','tiles','wood']"
621,Rhyzio,42.8883195,74.8448648,148.63,9.95,"['carpet','tiles','wood']"
622,Edgepulse,-26.1827713,-56.3712327,132.93,9.65,"['carpet','tiles','wood']"
623,Yozio,9.829638,-85.325961,134.01,9.91,"['carpet','tiles','wood']"
624,Skynoodle,46.946681,142.0144982,123.49,6.4,"['carpet','tiles','wood']"
625,Thoughtstorm,51.7783026,4.693265,104.43,7.27,"['carpet','tiles','wood']"
626,Browsecat,-16.7111944,-151.0340359,113.94,4.19,"['carpet','tiles','wood']"
627,Meevee,54.141449,101.978668,149.95,0.65,"['carpet','tiles','wood']"
628,Zoombeat,3.3420568,20.8731737,112.04,3.27,"['carpet','tiles','wood']"
629,Gigashots,2.3354966,37.9943453,145.03,8.89,"['carpet','tiles','wood']"
630,Oozz,21.519181,111.463919,144.98,7.31,"['carpet','tiles','wood']"
631,Riffpath,19.710125,-99.1400807,129.73,8.17,"['carpet','tiles','wood']"
632,Kimia,-8.2151612,112.6109257,128.7,3.7,"['carpet','tiles','wood']"
633,Innojam,43.7543283,-79.4422593,139.32,6.16,"['carpet','tiles','wood']"
634,BlogXS,15.4855369,105.28083,143.39,6.87,"['carpet','tiles','wood']"
635,Quinu,6.2266087,125.1233876,137.84,2.6,"['carpet','tiles','wood']"
636,Jaxnation,-1.5117336,102.7479899,122.8,1,"['carpet','tiles','wood']"
637,Twimbo,-6.9644462,108.5537373,117.83,4.07,"['carpet','tiles','wood']"
638,Feedmix,2.579401,-77.8138553,102.75,5.63,"['carpet','tiles','wood']"
639,Roombo,-25.4302418,-55.2590707,121.75,6.67,"['carpet','tiles','wood']"
640,Jayo,32.5639,120.396768,140.18,8.46,"['carpet','tiles','wood']"
641,Zooveo,12.2328311,107.6216789,123.01,0.6,"['carpet','tiles','wood']"
642,Browsezoom,36.0458806,-95.8562271,106.83,0.06,"['carpet','tiles','wood']"
643,Gabspot,53.4445864,58.9216772,108.01,6.01,"['carpet','tiles','wood']"
644,Livefish,64.0128827,11.496376,106.97,8.83,"['carpet','tiles','wood']"
645,Riffpath,25.49872,119.790168,133.09,3.81,"['carpet','tiles','wood']"
646,Roomm,-3.0029841,115.9467997,147.01,0.7,"['carpet','tiles','wood']"
647,Youopia,26.893368,112.572018,138.68,8.76,"['carpet','tiles','wood']"
648,Flipbug,-4.3499796,152.2714594,148.84,1.81,"['carpet','tiles','wood']"
649,Skyble,64.8923524,27.5304357,129.13,7.41,"['carpet','tiles','wood']"
650,Pixonyx,-5.5844754,105.4771084,100.33,9.28,"['carpet','tiles','wood']"
651,Trudoo,50.4534011,36.8469573,146.24,2.9,"['carpet','tiles','wood']"
652,Topicblab,-8.7578663,-35.1050712,107.1,0.68,"['carpet','tiles','wood']"
653,Jabbercube,33.226552,115.600976,125.78,2.65,"['carpet','tiles','wood']"
654,Realpoint,-32.9701344,-68.8462541,128.16,7.41,"['carpet','tiles','wood']"
655,Aimbu,-22.72125,27.31057,132.19,3.29,"['carpet','tiles','wood']"
656,Youtags,43.5066525,23.8635696,123.92,5.18,"['carpet','tiles','wood']"
657,Kwimbee,40.6400629,22.9444191,125.31,8.34,"['carpet','tiles','wood']"
658,Bubbletube,9.258006,123.281809,107.36,3.47,"['carpet','tiles','wood']"
659,Jamia,-24.7300224,-48.108265,105.26,0.69,"['carpet','tiles','wood']"
660,Youbridge,36.6512,117.120095,102.4,5.35,"['carpet','tiles','wood']"
661,Gabspot,50.994689,-0.964804,128.46,2.42,"['carpet','tiles','wood']"
662,Browsezoom,-7.7291029,110.6764877,131.64,3.92,"['carpet','tiles','wood']"
663,Pixoboo,-14.1968614,-41.6809724,118.01,1.21,"['carpet','tiles','wood']"
664,Voonte,9.6496571,-75.1402908,105.31,8.51,"['carpet','tiles','wood']"
665,Skipfire,33.8297993,46.3073161,114.5,7.34,"['carpet','tiles','wood']"
666,Jazzy,3.0646746,97.3290405,132.94,5.43,"['carpet','tiles','wood']"
667,Thoughtworks,46.0565579,15.6625947,111.42,5.17,"['carpet','tiles','wood']"
668,Roomm,30.368126,102.814531,109.29,4.25,"['carpet','tiles','wood']"
669,Rhycero,30.940195,118.75868,101.37,5.88,"['carpet','tiles','wood']"
670,Ozu,25.941937,117.365052,106.13,3.13,"['carpet','tiles','wood']"
671,Bubblebox,43.35,142.38333,144.78,9.74,"['carpet','tiles','wood']"
672,Realblab,32.501495,119.196466,121.6,1.96,"['carpet','tiles','wood']"
673,Viva,51.6515663,18.4344355,141.43,8.36,"['carpet','tiles','wood']"
674,Demizz,-6.0777029,-35.2420083,133.16,5.09,"['carpet','tiles','wood']"
675,Janyx,57.8814317,43.8050354,122.52,0.29,"['carpet','tiles','wood']"
676,Yoveo,41.095685,121.1268459,115.67,4.62,"['carpet','tiles','wood']"
677,Brainsphere,45.7039688,5.9492762,136.22,9.32,"['carpet','tiles','wood']"
678,Oyope,22.481274,113.217762,127.2,9.59,"['carpet','tiles','wood']"
679,Topdrive,38.963066,100.177294,123.15,3.33,"['carpet','tiles','wood']"
680,Shuffledrive,28.286067,109.429883,129.79,8.77,"['carpet','tiles','wood']"
681,Twimm,55.900378,37.387813,131.94,6.05,"['carpet','tiles','wood']"
682,Roodel,34.199479,119.578364,108.02,8.21,"['carpet','tiles','wood']"
683,Jabbercube,33.157445,106.834805,143.5,5.55,"['carpet','tiles','wood']"
684,Shufflester,-7.0807005,112.39108,129.5,9.46,"['carpet','tiles','wood']"
685,Realblab,30.741991,121.341969,124.82,2.85,"['carpet','tiles','wood']"
686,Yabox,-22.9531705,-46.5423239,118.16,9.84,"['carpet','tiles','wood']"
687,Tekfly,-6.155077,106.817744,101.26,3.61,"['carpet','tiles','wood']"
688,Meetz,39.1646273,63.6101211,130.33,5.1,"['carpet','tiles','wood']"
689,Skyble,1.4188947,-75.9230976,143.68,5.15,"['carpet','tiles','wood']"
690,Cogibox,40.546361,117.659499,130.02,6.36,"['carpet','tiles','wood']"
691,Vitz,55.2552487,94.8909467,115.1,7.33,"['carpet','tiles','wood']"
692,Thoughtmix,13.8503992,123.7585154,130.59,0.35,"['carpet','tiles','wood']"
693,Browsetype,-6.3045618,107.346448,100.26,1.84,"['carpet','tiles','wood']"
694,Zoovu,52.1173637,47.2076504,146.41,8.2,"['carpet','tiles','wood']"
695,Leexo,28.590337,105.697472,115.81,5.03,"['carpet','tiles','wood']"
696,Bubblemix,42.1261418,59.6665153,100.01,1.71,"['carpet','tiles','wood']"
697,Fadeo,43.236229,94.324152,132.78,4.19,"['carpet','tiles','wood']"
698,Gabspot,-4.4036778,119.6043972,115.09,5.52,"['carpet','tiles','wood']"
699,Yakidoo,42.223828,123.726035,122.5,5.34,"['carpet','tiles','wood']"
700,Thoughtsphere,-8.6793,122.3355,146.79,1.37,"['carpet','tiles','wood']"
701,Flipstorm,0.7697665,103.4049445,113.49,7.31,"['carpet','tiles','wood']"
702,Leenti,57.7316019,12.0703707,101.21,7.09,"['carpet','tiles','wood']"
703,Abata,10.9525339,125.027158,111.67,7.89,"['carpet','tiles','wood']"
704,Flashspan,50.8548419,39.0632827,108.77,3.5,"['carpet','tiles','wood']"
705,Vipe,-38.9395203,-68.1324297,133.9,7.48,"['carpet','tiles','wood']"
706,Skyndu,-7.1617465,-78.5127855,117.79,6.78,"['carpet','tiles','wood']"
707,Meevee,39.7024946,-8.7377503,149.07,8.87,"['carpet','tiles','wood']"
709,Dablist,14.6306039,121.0056925,133.29,6.44,"['carpet','tiles','wood']"
710,Jabbertype,53.3653866,-6.4887534,137.73,3.86,"['carpet','tiles','wood']"
711,Zoonoodle,-6.3385652,106.9447146,117.34,6.26,"['carpet','tiles','wood']"
712,Zooveo,12.9796798,123.9196804,106.79,4.66,"['carpet','tiles','wood']"
713,Meejo,40.412369,117.103146,112.28,1.68,"['carpet','tiles','wood']"
714,Eazzy,-23.3866812,-48.7218983,136.03,6.25,"['carpet','tiles','wood']"
715,Zava,47.2495437,107.5408308,141.51,1.18,"['carpet','tiles','wood']"
716,Brightbean,-2.9062039,114.6905436,147.21,0.09,"['carpet','tiles','wood']"
717,Layo,9.8243487,124.4861698,143.11,4.18,"['carpet','tiles','wood']"
718,Edgeclub,52.0095284,4.3342058,147.17,2.3,"['carpet','tiles','wood']"
719,Oyonder,-1.801926,-79.5346459,144.16,4.08,"['carpet','tiles','wood']"
720,Quinu,45.2497275,19.3967698,120.94,1.75,"['carpet','tiles','wood']"
721,Jaxnation,-21.35188,-46.4970116,127.64,8.66,"['carpet','tiles','wood']"
722,Thoughtblab,-7.2157251,107.901989,138.74,4.44,"['carpet','tiles','wood']"
723,Roombo,36.978537,117.173524,126.09,3.03,"['carpet','tiles','wood']"
724,Fadeo,21.8727408,-79.8380778,122.73,7.23,"['carpet','tiles','wood']"
725,Edgeify,28.6019464,-106.0244614,143.93,1.51,"['carpet','tiles','wood']"
726,Omba,28.90388,121.310873,111.44,2.21,"['carpet','tiles','wood']"
727,Realbridge,36.650038,101.766228,138.31,5.84,"['carpet','tiles','wood']"
728,Skivee,59.9531666,10.7559072,123.13,7.23,"['carpet','tiles','wood']"
729,Yakitri,-7.4632593,112.6972845,148.43,0.52,"['carpet','tiles','wood']"
730,Edgeclub,31.871595,56.0194244,128.06,4.55,"['carpet','tiles','wood']"
731,Thoughtstorm,44.86614,19.347341,132.56,4.02,"['carpet','tiles','wood']"
732,Photobug,-28.3284196,27.6317494,113.75,1.58,"['carpet','tiles','wood']"
733,Avaveo,43.3911349,42.9174509,133.99,9.42,"['carpet','tiles','wood']"
734,Aimbu,15.607875,39.4553839,136.89,4.93,"['carpet','tiles','wood']"
735,Photobug,4.0786306,9.358984,112.47,3.94,"['carpet','tiles','wood']"
736,Blogtag,16.0326307,-16.4818167,139.81,4.49,"['carpet','tiles','wood']"
737,Agimba,20.023731,110.580002,132.02,5.71,"['carpet','tiles','wood']"
738,Kamba,1.6154718,16.0463837,116.26,9.96,"['carpet','tiles','wood']"
739,Voonix,43.5757545,21.331051,137.52,7.21,"['carpet','tiles','wood']"
740,Riffpedia,29.334318,117.001279,102.9,1.02,"['carpet','tiles','wood']"
741,Blogspan,39.9167763,-7.4517472,122.18,4.27,"['carpet','tiles','wood']"
742,Zoombox,31.89609,35.08178,137.12,3.43,"['carpet','tiles','wood']"
743,Skyndu,-27.0032601,-49.2435998,142.36,9.83,"['carpet','tiles','wood']"
744,Yombu,-7.3682379,112.7554346,113.39,3.96,"['carpet','tiles','wood']"
745,Meembee,32.6349216,35.9889359,130.72,8.48,"['carpet','tiles','wood']"
746,Eadel,47.8569408,39.9593673,117.8,0.73,"['carpet','tiles','wood']"
747,Zoomzone,17.686931,103.9608091,121.54,0.46,"['carpet','tiles','wood']"
748,Linklinks,35.5955313,36.0322459,120.36,8.59,"['carpet','tiles','wood']"
749,Wordify,-15.133391,23.1530897,109.14,5.74,"['carpet','tiles','wood']"
750,Shuffledrive,35.1268513,-119.1855785,124.16,8.39,"['carpet','tiles','wood']"
751,Einti,35.2024947,127.4626534,126.87,1.89,"['carpet','tiles','wood']"
753,Browsetype,42.6688027,129.1189472,111.24,0.42,"['carpet','tiles','wood']"
754,Youopia,0.0851034,-76.8940156,105.41,5.33,"['carpet','tiles','wood']"
755,Zoonoodle,25.6872431,32.6396357,126.01,5.56,"['carpet','tiles','wood']"
756,Linktype,7.0055806,125.0923723,131.58,0.16,"['carpet','tiles','wood']"
757,Photolist,-8.1487,111.6539,121.56,8.84,"['carpet','tiles','wood']"
758,Flashdog,11.2927933,11.3119092,143.7,1.95,"['carpet','tiles','wood']"
759,Skyvu,29.603667,119.048169,148.72,4.27,"['carpet','tiles','wood']"
760,Skyvu,41.565627,120.453743,149.15,2.07,"['carpet','tiles','wood']"
761,Aibox,-7.646098,111.0266668,106.08,4.49,"['carpet','tiles','wood']"
762,Browsetype,28.391349,115.299029,101.57,1.35,"['carpet','tiles','wood']"
763,Eabox,30.7446878,120.4910168,141.26,2.17,"['carpet','tiles','wood']"
764,Kwimbee,33.06777,107.031856,121.95,9.98,"['carpet','tiles','wood']"
765,Jabbersphere,-20.2307033,-70.1356692,148.22,7.2,"['carpet','tiles','wood']"
766,Browsetype,50.051293,19.372452,106,5.03,"['carpet','tiles','wood']"
767,Quatz,41.119997,122.070714,124.78,3.88,"['carpet','tiles','wood']"
768,Twimbo,-22.9531705,-46.5423239,112.65,5.09,"['carpet','tiles','wood']"
769,Lajo,32.8676912,-80.017511,106.11,9.78,"['carpet','tiles','wood']"
771,Yadel,-16.4708895,46.7164256,108.02,2.44,"['carpet','tiles','wood']"
772,Skilith,-7.1918,107.0754,109.97,7.55,"['carpet','tiles','wood']"
773,Viva,35.2495378,136.8995543,102.89,5.39,"['carpet','tiles','wood']"
774,Zoomcast,41.3869496,-8.0022034,142.23,5.06,"['carpet','tiles','wood']"
775,Demizz,43.8324929,4.3662321,120.07,5.41,"['carpet','tiles','wood']"
776,Yata,37.943121,115.217658,115.14,4.1,"['carpet','tiles','wood']"
777,Kazio,29.82,-95.29,101.1,5.41,"['carpet','tiles','wood']"
778,Lazzy,15.4239767,120.6813126,138.84,6.45,"['carpet','tiles','wood']"
779,Blogtag,33.9352916,133.0604733,134.74,7.84,"['carpet','tiles','wood']"
780,Dabfeed,37.9356939,23.7294558,145.85,5.34,"['carpet','tiles','wood']"
781,Nlounge,-6.416667,-77.8833329,118.13,4.78,"['carpet','tiles','wood']"
782,Quimba,27.4404047,-82.5828377,110.31,8.92,"['carpet','tiles','wood']"
783,Quatz,49.0395242,16.6188111,106.05,3.26,"['carpet','tiles','wood']"
784,Photolist,-7.7929433,110.3249238,109,8.36,"['carpet','tiles','wood']"
785,Mita,13.5722578,-15.6002024,122.64,6.45,"['carpet','tiles','wood']"
786,Yambee,26.319938,113.810157,103.21,3.96,"['carpet','tiles','wood']"
787,Youopia,32.540157,111.513127,117.96,5.88,"['carpet','tiles','wood']"
788,Fatz,46.4078031,47.9992194,138.37,3.35,"['carpet','tiles','wood']"
789,Kaymbo,49.1912902,15.0524346,116.82,2.48,"['carpet','tiles','wood']"
790,Cogibox,-0.8808728,100.5858786,140.02,9.26,"['carpet','tiles','wood']"
791,Zoomlounge,57.9895226,31.3547855,123.29,8.48,"['carpet','tiles','wood']"
792,Thoughtblab,71.96347,114.09199,136.47,6.84,"['carpet','tiles','wood']"
793,Fliptune,-8.1553145,111.8270486,149.74,8.07,"['carpet','tiles','wood']"
800,Oyoba,-8.3628,123.3026,122.22,8.61,"['carpet','tiles','wood']"
801,Babblestorm,9.0691769,-62.0458106,132.59,7.04,"['carpet','tiles','wood']"
802,Skippad,12.3772165,-85.6698146,119.87,1.2,"['carpet','tiles','wood']"
803,Dablist,45.7830298,14.2038417,128.81,8.43,"['carpet','tiles','wood']"
804,Brainlounge,14.2345436,121.0929584,102.53,5.38,"['carpet','tiles','wood']"
806,Realbuzz,23.5359158,116.3544565,136.78,4.02,"['carpet','tiles','wood']"
807,Wikizz,-22.4008873,46.127902,144.35,9.24,"['carpet','tiles','wood']"
808,Realbridge,52.3582468,5.5106628,127.83,7.25,"['carpet','tiles','wood']"
809,Mycat,31.208465,121.526733,147.5,0.86,"['carpet','tiles','wood']"
810,Plajo,-8.412375,117.144997,122.19,8.96,"['carpet','tiles','wood']"
811,Miboo,31.2303904,121.4737021,130.18,2.67,"['carpet','tiles','wood']"
812,Trunyx,31.768319,35.21371,112.79,5.83,"['carpet','tiles','wood']"
813,Quatz,-27.5245743,-60.3884354,127.74,6.28,"['carpet','tiles','wood']"
814,Divape,-33.3306976,22.5345667,139.6,3.59,"['carpet','tiles','wood']"
815,Edgeblab,5.963336,-75.963942,121,5.7,"['carpet','tiles','wood']"
816,Skipstorm,-8.669071,115.213781,124.67,1.89,"['carpet','tiles','wood']"
817,Dynabox,49.871405,123.829819,120.54,5.62,"['carpet','tiles','wood']"
818,Quatz,60.8560471,22.6973045,118.4,3.48,"['carpet','tiles','wood']"
819,Pixonyx,52.4000431,4.7642491,127.65,9.09,"['carpet','tiles','wood']"
820,Zooveo,24.8138287,120.9674798,112.96,8.23,"['carpet','tiles','wood']"
821,Zooveo,59.9428184,10.6771005,140,1.13,"['carpet','tiles','wood']"
822,Youopia,55.7368049,37.8286538,113.91,2.6,"['carpet','tiles','wood']"
823,Centidel,-5.0559352,39.7291837,125.9,5.2,"['carpet','tiles','wood']"
824,Avavee,-8.4709546,118.8276355,119.89,0.86,"['carpet','tiles','wood']"
825,Divavu,26.7271466,85.9406745,109.81,3.98,"['carpet','tiles','wood']"
826,Yakitri,-7.5605,108.2573,105.28,1.28,"['carpet','tiles','wood']"
827,Thoughtworks,23.385158,113.404729,127.13,1.55,"['carpet','tiles','wood']"
828,Meezzy,-12.0169195,-75.2799884,145,4.76,"['carpet','tiles','wood']"
829,Brainsphere,22.75839,108.487368,103.54,1.09,"['carpet','tiles','wood']"
830,Youbridge,43.2916776,-0.3696612,102.52,3.25,"['carpet','tiles','wood']"
831,Wikivu,53.746745,62.0609273,133.84,2.47,"['carpet','tiles','wood']"
832,Eidel,30.42594,111.76053,144.87,8.32,"['carpet','tiles','wood']"
833,Katz,-10.5792295,-37.745028,104.13,4.29,"['carpet','tiles','wood']"
834,Twitterbridge,34.681962,-1.900155,124.91,6.3,"['carpet','tiles','wood']"
835,Blogspan,-7.0453363,108.2347863,119.93,1.77,"['carpet','tiles','wood']"
836,Avavee,-20.692675,164.991636,123.37,9.95,"['carpet','tiles','wood']"
10,Fanoodle,-16.8093546,-70.6954668,147.46,8.39,"['carpet','tiles','wood']"
11,Photobug,28.423436,109.006211,112.12,3.63,"['carpet','tiles','wood']"
12,Dabvine,13.513211,122.469352,112.34,6.51,"['carpet','tiles','wood']"
13,Wikido,43.0712553,46.5659164,117.04,0.28,"['carpet','tiles','wood']"
14,Yotz,44.9532375,17.3583673,129.62,2.24,"['carpet','tiles','wood']"
15,Divavu,39.9474817,116.4689261,126.58,8.5,"['carpet','tiles','wood']"
16,Jayo,51.900276,-1.504654,101.26,9.58,"['carpet','tiles','wood']"
17,Mydo,27.96,-82.53,100.57,9.16,"['carpet','tiles','wood']"
18,Wikizz,29.65,-82.33,100.2,0.85,"['carpet','tiles','wood']"
5,Realblab,-22.5077597,-44.0947303,137.12,2.29,"['carpet','tiles','wood']"
19,Meeveo,54.9272788,41.1402811,135.65,3.27,"['carpet','tiles','wood']"
20,Twimbo,-32.9660173,-60.6596502,115.65,2.59,"['carpet','tiles','wood']"
21,Skalith,-24.5551012,25.8107681,123.06,8.76,"['carpet','tiles','wood']"
22,Thoughtworks,29.763892,121.513271,101.59,0.37,"['carpet','tiles','wood']"
23,Trilia,37.942488,110.525111,128.2,2.78,"['carpet','tiles','wood']"
24,Zoomzone,12.1149926,-86.2361744,139.26,2.1,"['carpet','tiles','wood']"
25,Midel,-3.6809961,33.4271403,130.33,6.56,"['carpet','tiles','wood']"
26,Skiptube,-9.9851249,124.0585732,127.99,8.7,"['carpet','tiles','wood']"
27,Mynte,-32.7248333,25.5799503,102.3,5.64,"['carpet','tiles','wood']"
28,Twitterbeat,-8.233052,113.3100762,100.55,0.95,"['carpet','tiles','wood']"
29,Vinder,6.95333,124.42556,120.08,4.45,"['carpet','tiles','wood']"
30,Quaxo,42.5447407,70.3420209,138.96,2.12,"['carpet','tiles','wood']"
31,Jaxbean,-25.8700559,28.158466,146.97,3.94,"['carpet','tiles','wood']"
32,Voonder,61.9095031,24.5263263,116.1,2.92,"['carpet','tiles','wood']"
33,Yadel,-8.2769363,-77.3008506,119.93,4.36,"['carpet','tiles','wood']"
34,Tambee,-6.9325697,109.6579791,119.83,4.09,"['carpet','tiles','wood']"
35,Gigazoom,40.767544,114.886335,103.87,5.84,"['carpet','tiles','wood']"
36,Skajo,42.25785,118.886931,118.89,9.65,"['carpet','tiles','wood']"
37,Skipfire,59.960223,10.7590006,142.8,6.86,"['carpet','tiles','wood']"
38,Pixonyx,22.719257,114.055261,102.49,7.15,"['carpet','tiles','wood']"
770,Trupe,44.8948219,19.8640376,100.38,7.25,"['carpet','tiles','wood']"
966,Katz,20.019055,110.2889917,105.35,9.97,"['carpet','tiles','wood']"
967,Skinder,30.5383451,117.0666454,118.73,9.66,"['carpet','tiles','wood']"
968,Flashdog,44.2136985,3.9996505,140.29,4.22,"['carpet','tiles','wood']"
969,Meevee,34.167484,112.297729,110.8,1.58,"['carpet','tiles','wood']"
970,Myworks,-6.9917588,111.2785407,147.77,4.31,"['carpet','tiles','wood']"
971,Minyx,45.8377021,-73.4310787,106.11,4.63,"['carpet','tiles','wood']"
972,Dabtype,58.9482486,23.5370533,145.85,5.25,"['carpet','tiles','wood']"
973,Fivespan,14.913868,-87.26432,113.78,7.43,"['carpet','tiles','wood']"
974,Fliptune,-36.23975,-61.121304,103.08,1.6,"['carpet','tiles','wood']"
975,Skinder,40.5845053,-8.0854006,117.29,8.1,"['carpet','tiles','wood']"
837,Topicblab,-6.57956,106.6438673,109.74,5.56,"['carpet','tiles','wood']"
838,Voomm,8.0275675,100.2375823,128.21,6.43,"['carpet','tiles','wood']"
839,Jetwire,24.3653152,109.5235215,100.51,0.65,"['carpet','tiles','wood']"
840,Skimia,-38.7445218,-72.9482281,149.51,1.05,"['carpet','tiles','wood']"
841,Zoombox,53.8819853,18.5517476,117.74,2.82,"['carpet','tiles','wood']"
842,Npath,32.53292,110.983684,141.36,4.14,"['carpet','tiles','wood']"
843,Jaxnation,-5.2450244,14.8571368,130.61,4.28,"['carpet','tiles','wood']"
844,Tagpad,-12.2446158,44.5057388,136.54,9.56,"['carpet','tiles','wood']"
845,Zooveo,15.3775935,-88.0240796,132.56,5.83,"['carpet','tiles','wood']"
846,Skyba,64.918515,16.2948002,139.4,6.46,"['carpet','tiles','wood']"
847,Trudoo,38.8189466,-77.0593246,102.93,3.61,"['carpet','tiles','wood']"
848,Gigabox,7.9122744,98.3459726,138.4,1.99,"['carpet','tiles','wood']"
849,Jabberbean,39.608266,109.781327,139.91,1.16,"['carpet','tiles','wood']"
850,Topicshots,-6.9092185,107.6426797,148.26,0.23,"['carpet','tiles','wood']"
851,Oyoba,39.9041999,116.4073963,121.19,8.51,"['carpet','tiles','wood']"
852,Jaloo,38.914003,121.614682,125.44,3.09,"['carpet','tiles','wood']"
976,Fiveclub,51.78914,21.59133,133.83,6.02,"['carpet','tiles','wood']"
977,Realfire,40.0856412,-8.2896115,115.29,5.43,"['carpet','tiles','wood']"
978,Voonix,38.871032,140.0082705,144.99,9.61,"['carpet','tiles','wood']"
979,Skipfire,31.9584113,12.0204247,105.38,9.96,"['carpet','tiles','wood']"
980,Kanoodle,10.6544509,-71.7147951,128.35,0.44,"['carpet','tiles','wood']"
981,Zoomlounge,3.60783,98.8076849,149.93,7.53,"['carpet','tiles','wood']"
982,Innotype,34.748808,113.6656069,105.03,7.49,"['carpet','tiles','wood']"
983,Photospace,59.3213754,24.5571211,129.86,2.87,"['carpet','tiles','wood']"
984,Wikibox,35.490701,112.851831,108.76,7.96,"['carpet','tiles','wood']"
985,Meejo,8.909013,-75.9579358,149.16,4.52,"['carpet','tiles','wood']"
986,Jaxbean,-28.2674857,-52.4626809,109.57,7.38,"['carpet','tiles','wood']"
987,Linklinks,7.1756111,124.9231052,135.29,1.9,"['carpet','tiles','wood']"
988,Dabtype,39.419036,117.644144,143.34,9.8,"['carpet','tiles','wood']"
989,Zoomdog,14.6688068,121.1138058,123.68,8.76,"['carpet','tiles','wood']"
990,Blogtag,12.5640276,123.7304111,102.1,0.18,"['carpet','tiles','wood']"
991,Lajo,14.7596318,121.0589081,136.73,2.23,"['carpet','tiles','wood']"
992,Lazz,-6.9586416,107.6896073,133.25,4.55,"['carpet','tiles','wood']"
993,Rhynyx,32.7324624,36.0621579,142.92,1,"['carpet','tiles','wood']"
994,Quimm,40.71104,120.83694,143.05,8.75,"['carpet','tiles','wood']"
995,Bluejam,35.3237104,33.3149413,133.31,6.61,"['carpet','tiles','wood']"
996,Plambee,16.9165711,107.0303221,113.22,4.23,"['carpet','tiles','wood']"
997,Gigashots,48.695223,2.190167,144.2,3.01,"['carpet','tiles','wood']"
998,Flipbug,-8.0321,112.7975,145.91,7.22,"['carpet','tiles','wood']"
999,Quinu,-14.2713338,50.1678121,132.5,7.21,"['carpet','tiles','wood']"
1000,Agimba,36.3163,74.6786,117.14,5.26,"['carpet','tiles','wood']"
939,Pixope,55.6720347,12.5911341,147.08,8.23,"['carpet','tiles','wood']"
940,Zoomzone,-10.170262,123.6427533,115.78,7.18,"['carpet','tiles','wood']"
941,Agivu,27.8264989,91.135302,103.03,4,"['carpet','tiles','wood']"
942,Tagpad,5.7022374,-1.2842887,106.29,0.72,"['carpet','tiles','wood']"
943,Skyndu,-6.9706827,112.593047,108.49,6.38,"['carpet','tiles','wood']"
944,Wordify,55.874736,26.536179,107.96,8.2,"['carpet','tiles','wood']"
945,Rhyzio,38.3741418,23.1060007,114.41,4.69,"['carpet','tiles','wood']"
946,Zoonder,50.1078135,25.7276661,108.95,5.6,"['carpet','tiles','wood']"
947,Gabtune,64.9099021,25.5080144,110.56,5.01,"['carpet','tiles','wood']"
948,Twitterwire,-39.6415998,-72.3370089,121.63,9.04,"['carpet','tiles','wood']"
949,Abata,45.0432559,136.6092251,132.77,1.07,"['carpet','tiles','wood']"
950,Blogtag,38.9908943,-9.0471651,149.19,7.35,"['carpet','tiles','wood']"
951,Katz,55.6720347,12.5911341,133.86,7.76,"['carpet','tiles','wood']"
952,Oyoba,39.9721425,69.8597406,143.28,4.33,"['carpet','tiles','wood']"
953,Skyvu,7.8570335,36.5823944,140.38,4.94,"['carpet','tiles','wood']"
954,Fliptune,6.0151191,101.951925,118.64,7,"['carpet','tiles','wood']"
955,Avamba,-18.1450471,31.8477213,103.92,7.84,"['carpet','tiles','wood']"
956,Muxo,-40.4057293,175.5843632,130.9,4.69,"['carpet','tiles','wood']"
957,Muxo,45.950582,128.043465,120.76,7.45,"['carpet','tiles','wood']"
958,Plajo,14.622814,-61.030174,106.91,9.14,"['carpet','tiles','wood']"
959,Fliptune,34.99015,70.91302,104.21,1.51,"['carpet','tiles','wood']"
960,Jaxspan,43.6164958,3.8308136,133.39,2.9,"['carpet','tiles','wood']"
961,Jaxbean,48.9479951,90.0133872,128.91,2.38,"['carpet','tiles','wood']"
962,Mita,-7.5450262,111.6556388,134.12,8.17,"['carpet','tiles','wood']"
963,Yozio,-5.1734862,105.1990045,123.3,9.19,"['carpet','tiles','wood']"
964,Skippad,32.6521604,130.675613,148.77,5.97,"['carpet','tiles','wood']"
965,Photobean,40.6661376,22.9037753,147.1,0.7,"['carpet','tiles','wood']"
